IPEDS Unique ID,Institution,Alias,Address,City,State,ZIP code,Longitude,Latitude,Control,Offers graduate program,HBCU,Locale,Carnegie Classification 2021: Basic,Carnegie Classification 2021: Graduate Instructional Program,Carnegie Classification 2021: Enrollment Profile,Carnegie Classification 2021: Size and Setting,Grand total,Grand total men,Grand total women,Nonresident alien total,Nonresident alien men,Nonresident alien women,Total enrolled graduate students,Exclusively distance education,Some distance education,No distance education,Grand total (MS),Grand total men (MS),Grand total women (MS),Nonresident alien total (MS),Nonresident alien men (MS),Nonresident alien women (MS),Grand total (DR),Grand total men (DR),Grand total women (DR),Nonresident alien total (DR),Nonresident alien men (DR),Nonresident alien women (DR),Congressional District (118th)
100654,Alabama A & M University,AAMU,4900 Meridian Street,Normal,AL,35762,-86.568502,34.783368,Public,Graduate degree or certificate offering,Yes,City: Midsize,Master's Colleges & Universities: Larger Programs,Research Doctoral: Professional-dominant,High undergraduate,"Four-year, medium, highly residential",1099,345,754,50,24,26,1099,525,487,87,251,71,180,8,4,4,7,2,5,4,1,3,AL05
100663,University of Alabama at Birmingham,UAB,Administration Bldg Suite 1070,Birmingham,AL,35294-0110,-86.799345,33.505697,Public,Graduate degree or certificate offering,No,City: Midsize,Doctoral Universities: Very High Research Activity,"Research Doctoral: Comprehensive programs, with medical/veterinary school",Majority undergraduate,"Four-year, large, primarily nonresidential",10652,3631,7021,826,477,349,10652,4262,2054,4336,2433,794,1639,239,132,107,149,70,79,25,14,11,AL07
100690,Amridge University,Southern Christian University  Regions University,1200 Taylor Rd,Montgomery,AL,36117-3553,-86.17401,32.362609,Private not-for-profit,Graduate degree or certificate offering,No,City: Midsize,Master's Colleges & Universities: Small Programs,Research Doctoral: Professional-dominant,Majority graduate,"Four-year, very small, primarily nonresidential",714,327,387,0,0,0,714,714,0,0,107,46,61,0,0,0,12,8,4,0,0,0,AL02
100706,University of Alabama in Huntsville,UAH  University of Alabama Huntsville,301 Sparkman Dr,Huntsville,AL,35899,-86.640449,34.724557,Public,Graduate degree or certificate offering,No,City: Midsize,Doctoral Universities: Very High Research Activity,Research Doctoral: STEM-dominant,High undergraduate,"Four-year, medium, primarily residential",2432,1135,1297,201,134,67,2432,1347,838,247,516,224,292,41,25,16,40,28,12,22,16,6,AL05
100724,Alabama State University, ,915 S Jackson Street,Montgomery,AL,36104-0271,-86.295677,32.364317,Public,Graduate degree or certificate offering,Yes,City: Midsize,Doctoral/Professional Universities,Research Doctoral: Professional-dominant,Very high undergraduate,"Four-year, medium, highly residential",564,182,382,8,6,2,564,322,201,41,105,28,77,0,0,0,14,7,7,1,1,0,AL07
100751,The University of Alabama, ,739 University Blvd,Tuscaloosa,AL,35487-0100,-87.545978,33.211875,Public,Graduate degree or certificate offering,No,City: Small,Doctoral Universities: Very High Research Activity,"Research Doctoral: Comprehensive programs, no medical/veterinary school",High undergraduate,"Four-year, large, primarily residential",7381,2731,4650,701,424,277,7381,3158,2738,1485,1859,694,1165,74,36,38,203,104,99,62,39,23,AL07
100812,Athens State University, ,300 N Beaty St,Athens,AL,35611,-86.964698,34.806793,Public,Graduate degree or certificate offering,No,Town: Fringe,Baccalaureate Colleges: Diverse Fields,"Postbaccalaureate: Education-dominant, with Arts & Sciences",Very high undergraduate,"Four-year, small, primarily nonresidential",271,113,158,0,0,0,271,270,0,1,78,32,46,0,0,0,0,0,0,0,0,0,AL05
100830,Auburn University at Montgomery,AUM||Auburn University at Montgomery|Auburn Montgomery,7440 East Drive,Montgomery,AL,36117-3596,-86.177544,32.36736,Public,Graduate degree or certificate offering,No,City: Midsize,Master's Colleges & Universities: Larger Programs,Postbaccalaureate: Comprehensive programs,High undergraduate,"Four-year, medium, primarily residential",1087,405,682,149,108,41,1087,476,444,167,277,108,169,63,42,21,0,0,0,0,0,0,AL02
100858,Auburn University, , ,Auburn,AL,36849,-85.488258,32.599378,Public,Graduate degree or certificate offering,No,City: Small,Doctoral Universities: Very High Research Activity,"Research Doctoral: Comprehensive programs, with medical/veterinary school",High undergraduate,"Four-year, large, primarily nonresidential",7118,3291,3827,1263,751,512,7118,2051,542,4525,1295,636,659,237,134,103,251,133,118,98,68,30,AL03
101116,South University-Montgomery, ,5355 Vaughn Rd,Montgomery,AL,36116,-86.216488,32.342684,Private for-profit,Graduate degree or certificate offering,No,City: Midsize,Baccalaureate Colleges: Diverse Fields,"Postbaccalaureate: Business-dominant, with Arts & Sciences",High undergraduate,"Four-year, very small, primarily nonresidential",92,27,65,0,0,0,92,66,15,11,25,7,18,0,0,0,0,0,0,0,0,0,AL02
101189,Faulkner University,Faulkner,5345 Atlanta Hwy,Montgomery,AL,36109-3390,-86.21641,32.384181,Private not-for-profit,Graduate degree or certificate offering,No,City: Midsize,Master's Colleges & Universities: Larger Programs,Research Doctoral: Humanities/social sciences-dominant,Majority undergraduate,"Four-year, small, primarily residential",1126,444,682,1,1,0,1126,826,112,188,433,134,299,0,0,0,0,0,0,0,0,0,AL02
101365,Herzing University-Birmingham, ,280 West Valley Ave,Birmingham,AL,35209,-86.832465,33.468466,Private not-for-profit,Graduate degree or certificate offering,No,Suburb: Large,Special Focus Four-Year: Other Health Professions Schools,Postbaccalaureate: Single program-Business,Very high undergraduate,"Four-year, very small, primarily nonresidential",19,4,15,0,0,0,19,19,0,0,7,2,5,0,0,0,0,0,0,0,0,0,AL07
101435,Huntingdon College, ,1500 East Fairview Avenue,Montgomery,AL,36106-2148,-86.284366,32.351034,Private not-for-profit,Graduate degree or certificate offering,No,City: Midsize,Baccalaureate Colleges: Diverse Fields,Not classified (Exclusively Undergraduate),Exclusively undergraduate four-year,"Four-year, very small, highly residential",4,1,3,0,0,0,4,0,0,4,0,0,0,0,0,0,0,0,0,0,0,0,AL02
101453,Heritage Christian University, ,3625 Helton Dr,Florence,AL,35630-9977,-87.663051,34.856153,Private not-for-profit,Graduate degree or certificate offering,No,City: Small,Special Focus Four-Year: Faith-Related Institutions,Postbaccalaureate: Single program-Other,Majority undergraduate,"Four-year, very small, primarily nonresidential",51,48,3,1,1,0,51,46,3,2,2,1,1,0,0,0,0,0,0,0,0,0,AL05
101480,Jacksonville State University, ,700 Pelham Road North,Jacksonville,AL,36265,-85.765321,33.822938,Public,Graduate degree or certificate offering,No,Suburb: Small,Master's Colleges & Universities: Larger Programs,Postbaccalaureate: Comprehensive programs,High undergraduate,"Four-year, medium, primarily residential",1848,632,1216,36,18,18,1848,1269,517,62,456,153,303,16,5,11,0,0,0,0,0,0,AL03
101587,University of West Alabama,UWA,Station One,Livingston,AL,35470,-88.186329,32.588132,Public,Graduate degree or certificate offering,No,Rural: Remote,Master's Colleges & Universities: Larger Programs,Postbaccalaureate: Comprehensive programs,Majority graduate,"Four-year, medium, primarily residential",5811,1144,4667,40,18,22,5811,5673,129,9,1181,210,971,4,2,2,17,6,11,0,0,0,AL07
101693,University of Mobile,University of Mobile,5735 College Parkway,Mobile,AL,36613-2842,-88.128934,30.793247,Private not-for-profit,Graduate degree or certificate offering,No,Rural: Fringe,Master's Colleges & Universities: Small Programs,"Postbaccalaureate: Other-dominant, with Arts & Sciences",High undergraduate,"Four-year, small, highly residential",290,92,198,29,24,5,290,145,43,102,85,20,65,5,2,3,7,0,7,0,0,0,AL01
101709,University of Montevallo, ,Station 6001,Montevallo,AL,35115-6000,-86.865099,33.10625,Public,Graduate degree or certificate offering,No,Suburb: Large,Master's Colleges & Universities: Medium Programs,"Postbaccalaureate: Education-dominant, with Arts & Sciences",Very high undergraduate,"Four-year, small, highly residential",484,105,379,5,2,3,484,130,339,15,109,27,82,1,0,1,0,0,0,0,0,0,AL06
101879,University of North Alabama,UNA,One Harrison Plaza,Florence,AL,35632-0001,-87.681361,34.806738,Public,Graduate degree or certificate offering,No,City: Small,Master's Colleges & Universities: Larger Programs,"Postbaccalaureate: Business-dominant, with Arts & Sciences",High undergraduate,"Four-year, medium, primarily residential",2854,1024,1830,81,31,50,2854,2491,305,58,561,188,373,31,13,18,0,0,0,0,0,0,AL04
101912,Oakwood University,OU,7000 Adventist Blvd NW,Huntsville,AL,35896,-86.652705,34.756344,Private not-for-profit,Graduate degree or certificate offering,Yes,City: Midsize,Baccalaureate Colleges: Arts & Sciences Focus,Postbaccalaureate: Single program-Other,Very high undergraduate,"Four-year, small, highly residential",100,41,59,4,1,3,100,59,34,7,12,5,7,1,0,1,0,0,0,0,0,0,AL05
102049,Samford University, ,800 Lakeshore Drive,Birmingham,AL,35229-2240,-86.791799,33.464128,Private not-for-profit,Graduate degree or certificate offering,No,Suburb: Large,Doctoral/Professional Universities,Research Doctoral: Single program-Education,Majority undergraduate,"Four-year, medium, highly residential",2476,829,1647,17,9,8,2476,316,1648,512,264,92,172,13,10,3,46,20,26,0,0,0,AL07
102094,University of South Alabama, ,307 N University Blvd,Mobile,AL,36688-0002,-88.178711,30.696033,Public,Graduate degree or certificate offering,No,City: Midsize,Doctoral Universities: High Research Activity,Research Doctoral: Professional-dominant,Majority undergraduate,"Four-year, large, primarily residential",6164,1183,4981,95,52,43,6164,4191,509,1464,1230,238,992,45,22,23,39,15,24,6,3,3,AL01
102234,Spring Hill College,Springhill|Springhill College|SHC|the Hill,4000 Dauphin St,Mobile,AL,36608-1791,-88.138199,30.694751,Private not-for-profit,Graduate degree or certificate offering,No,City: Midsize,Baccalaureate Colleges: Diverse Fields,"Postbaccalaureate: Business-dominant, with Arts & Sciences",Very high undergraduate,"Four-year, small, highly residential",189,110,79,3,3,0,189,128,37,24,42,23,19,2,2,0,0,0,0,0,0,0,AL01
102298,Talladega College, ,627 West Battle Street,Talladega,AL,35160,-86.112704,33.433472,Private not-for-profit,Graduate degree or certificate offering,Yes,Town: Distant,Baccalaureate Colleges: Diverse Fields,Postbaccalaureate: Single program-Other,Very high undergraduate,"Four-year, small, highly residential",18,8,10,2,1,1,18,18,0,0,4,1,3,0,0,0,0,0,0,0,0,0,AL03
102368,Troy University,TROY,University Avenue,Troy,AL,36082-0001,-85.957094,31.800672,Public,Graduate degree or certificate offering,No,Town: Remote,Master's Colleges & Universities: Larger Programs,Research Doctoral: Single program-Other,High undergraduate,"Four-year, large, primarily nonresidential",5513,2109,3404,74,33,41,5513,4036,628,849,1137,381,756,33,16,17,8,6,2,0,0,0,AL02
102377,Tuskegee University, ,"Kresge Center, 3rd Floor",Tuskegee,AL,36088-1920,-85.708492,32.4309,Private not-for-profit,Graduate degree or certificate offering,Yes,Town: Distant,Master's Colleges & Universities: Medium Programs,Research Doctoral: STEM-dominant,High undergraduate,"Four-year, small, highly residential",521,130,391,0,0,0,521,2,0,519,76,26,50,0,0,0,6,3,3,0,0,0,AL03
102395,United States Sports Academy,The Academy America's Sports University,One Academy Drive,Daphne,AL,36526-7055,-87.91163,30.639329,Private not-for-profit,Graduate degree or certificate offering,No,City: Small,Special Focus Four-Year: Other Special Focus Institutions,"Postbaccalaureate: Other-dominant, with Arts & Sciences",Majority graduate,"Four-year, very small, primarily nonresidential",275,191,84,0,0,0,275,275,0,0,34,20,14,1,0,1,0,0,0,0,0,0,AL01
102553,University of Alaska Anchorage,UAA,3211 Providence Drive,Anchorage,AK,99508,-149.82619,61.190163,Public,Graduate degree or certificate offering,No,City: Large,Master's Colleges & Universities: Larger Programs,Research Doctoral: Humanities/social sciences-dominant,Very high undergraduate,"Four-year, medium, primarily nonresidential",866,277,589,23,9,14,866,644,148,74,190,66,124,6,2,4,6,2,4,0,0,0,AK00
102614,University of Alaska Fairbanks,UAF,1731 South Chandalar Drive,Fairbanks,AK,99775,-147.823146,64.85756,Public,Graduate degree or certificate offering,No,Suburb: Small,Doctoral Universities: High Research Activity,"Research Doctoral: Comprehensive programs, no medical/veterinary school",High undergraduate,"Four-year, medium, primarily nonresidential",1198,480,718,86,52,34,1198,656,415,127,195,86,109,12,9,3,39,21,18,11,7,4,AK00
102632,University of Alaska Southeast, ,11066 Auke Lake Way,Juneau,AK,99801-8697,-134.638255,58.384846,Public,Graduate degree or certificate offering,No,Town: Remote,Master's Colleges & Universities: Medium Programs,"Postbaccalaureate: Education-dominant, with other professional programs",High undergraduate,"Four-year, very small, primarily nonresidential",370,95,275,11,2,9,370,215,137,18,122,35,87,4,2,2,0,0,0,0,0,0,AK00
102669,Alaska Pacific University, ,4101 University Dr,Anchorage,AK,99508,-149.804168,61.190968,Private not-for-profit,Graduate degree or certificate offering,No,City: Large,Baccalaureate Colleges: Diverse Fields,"Postbaccalaureate: Business-dominant, with Arts & Sciences",Majority undergraduate,"Four-year, very small, primarily residential",200,60,140,0,0,0,200,183,11,6,57,18,39,0,0,0,0,0,0,0,0,0,AK00
104090,Brookline College-Phoenix, ,"2445 W. Dunlap Ave., Ste. 100",Phoenix,AZ,85021,-112.112473,33.566102,Private for-profit,Graduate degree or certificate offering,No,City: Large,Special Focus Four-Year: Other Health Professions Schools,Postbaccalaureate: Single program-Other,Very high undergraduate,"Four-year, small, primarily nonresidential",54,15,39,0,0,0,54,54,0,0,14,5,9,0,0,0,0,0,0,0,0,0,AZ08
104151,Arizona State University Campus Immersion,ASU Tempe,University Drive and Mill Avenue,Tempe,AZ,85287,-111.934383,33.417721,Public,Graduate degree or certificate offering,No,City: Midsize,Doctoral Universities: Very High Research Activity,"Research Doctoral: Comprehensive programs, no medical/veterinary school",High undergraduate,"Four-year, large, primarily residential",13884,7146,6738,4452,2904,1548,13884,1072,6506,6306,3926,2108,1818,1533,1022,511,614,317,297,222,157,65,AZ04
104179,University of Arizona,The University of Arizona | UArizona | U of A | UofA | UA | University of AZ | Univ. of AZ | The Univ. of AZ,1401 E University,Tucson,AZ,85721-0066,-110.950815,32.232672,Public,Graduate degree or certificate offering,No,City: Large,Doctoral Universities: Very High Research Activity,"Research Doctoral: Comprehensive programs, with medical/veterinary school",High undergraduate,"Four-year, large, primarily nonresidential",11968,5344,6624,1444,806,638,11968,3766,2378,5824,2256,1021,1235,297,168,129,486,266,220,146,98,48,AZ07
104586,Embry-Riddle Aeronautical University-Prescott,Embry Riddle Aeronautical University-Prescott,3700 Willow Creek Road,Prescott,AZ,86301-3720,-112.449741,34.616766,Private not-for-profit,Graduate degree or certificate offering,No,Rural: Fringe,Baccalaureate Colleges: Diverse Fields,"Postbaccalaureate: Other-dominant, with Arts & Sciences",Very high undergraduate,"Four-year, small, primarily residential",53,35,18,17,13,4,53,2,17,34,14,4,10,3,1,2,0,0,0,0,0,0,AZ02
104665,The School of Architecture, ,6433 E. Doubletree Ranch Rd.,Paradise Valley,AZ,85253,-111.941953,33.566649,Private not-for-profit,Graduate degree or certificate offering,No,Suburb: Large,Special Focus Four-Year: Other Special Focus Institutions,Postbaccalaureate: Single program-Other,Exclusively graduate,Exclusively graduate/professional,15,8,7,0,0,0,15,2,0,13,7,2,5,0,0,0,0,0,0,0,0,0,AZ01
104717,Grand Canyon University,GCU,3300 W Camelback Rd,Phoenix,AZ,85017,-112.129929,33.513231,Private for-profit,Graduate degree or certificate offering,No,City: Large,Doctoral/Professional Universities,Research Doctoral: Professional-dominant,Majority undergraduate,"Four-year, large, primarily nonresidential",61923,14241,47682,461,214,247,61923,57692,3506,725,14378,3188,11190,124,48,76,829,195,634,4,2,2,AZ03
105330,Northern Arizona University,NAU,"1900 S Knoles Dr, Babbitt Administrative Center, Room 200",Flagstaff,AZ,86011-4092,-111.653724,35.188449,Public,Graduate degree or certificate offering,No,City: Small,Doctoral Universities: High Research Activity,"Research Doctoral: Comprehensive programs, no medical/veterinary school",High undergraduate,"Four-year, large, primarily residential",5305,1613,3692,205,117,88,5305,2459,1165,1681,1328,410,918,47,29,18,77,31,46,13,6,7,AZ02
105367,Ottawa University-Phoenix,OUAZ - Phoenix,9414 North 25th Avenue,Phoenix,AZ,85021,-112.113001,33.572173,Private not-for-profit,Graduate degree or certificate offering,No,City: Large,Master's Colleges & Universities: Medium Programs,"Postbaccalaureate: Other-dominant, with other professional programs",Majority graduate,"Four-year, very small, primarily nonresidential",832,361,471,0,0,0,832,172,660,0,168,68,100,0,0,0,0,0,0,0,0,0,AZ08
105589,Prescott College,Prescot College | Prescott University | Prescott University | Prescott | PC | Prescott Center for Alternative Education,220 Grove Ave,Prescott,AZ,86301,-112.477185,34.5452,Private not-for-profit,Graduate degree or certificate offering,No,City: Small,Master's Colleges & Universities: Medium Programs,Research Doctoral: Single program-Education,Majority undergraduate,"Four-year, very small, primarily residential",772,171,601,3,0,3,772,765,0,7,176,49,127,2,0,2,5,1,4,0,0,0,AZ02
106245,University of Arkansas at Little Rock,UA Little Rock|University of Arkansas-Little Rock|Arkansas Little Rock|,2801 S University Ave,Little Rock,AR,72204,-92.339778,34.723254,Public,Graduate degree or certificate offering,No,City: Midsize,Doctoral Universities: High Research Activity,Research Doctoral: STEM-dominant,Majority undergraduate,"Four-year, medium, primarily nonresidential",2891,1098,1793,313,183,130,2891,2122,162,607,416,142,274,62,30,32,50,24,26,25,17,8,AR02
106263,University of Arkansas for Medical Sciences,UAMS,4301 W Markham,Little Rock,AR,72205-7199,-92.322348,34.750152,Public,Graduate degree or certificate offering,No,City: Midsize,Special Focus Four-Year: Research Institutions,Research Doctoral: Professional-dominant,Majority graduate,"Four-year, small, primarily nonresidential",2265,802,1463,82,41,41,2265,343,1278,644,225,58,167,4,1,3,31,13,18,7,4,3,AR02
106397,University of Arkansas,University of Arkansas|Arkansas,Administration Bldg 425,Fayetteville,AR,72701,-94.176981,36.070009,Public,Graduate degree or certificate offering,No,City: Small,Doctoral Universities: Very High Research Activity,"Research Doctoral: Comprehensive programs, no medical/veterinary school",High undergraduate,"Four-year, large, primarily residential",5556,2684,2872,791,433,358,5556,2226,2524,806,1229,606,623,127,64,63,208,114,94,81,54,27,AR03
106412,University of Arkansas at Pine Bluff,UAPB,1200 N University Mail Slot 4789,Pine Bluff,AR,71601,-92.018683,34.244031,Public,Graduate degree or certificate offering,Yes,City: Small,Baccalaureate Colleges: Diverse Fields,"Postbaccalaureate: Education-dominant, with Arts & Sciences",Very high undergraduate,"Four-year, small, highly residential",200,97,103,21,15,6,200,27,158,15,34,8,26,2,1,1,0,0,0,0,0,0,AR04
106458,Arkansas State University,A-State,2105 E. Aggie Road,Jonesboro,AR,72401,-90.679988,35.842388,Public,Graduate degree or certificate offering,No,City: Small,Doctoral Universities: High Research Activity,Research Doctoral: Professional-dominant,High undergraduate,"Four-year, medium, primarily residential",8289,2570,5719,175,103,72,8289,7184,453,652,1850,584,1266,66,41,25,19,4,15,1,1,0,AR01
106467,Arkansas Tech University,ATU|Tech|Arkansas Tech,"Administration Bldg 200, 1509 N Boulder Ave",Russellville,AR,72801-2222,-93.13562,35.293237,Public,Graduate degree or certificate offering,No,Town: Remote,Master's Colleges & Universities: Larger Programs,Research Doctoral: Single program-Education,Very high undergraduate,"Four-year, medium, primarily residential",1012,350,662,36,24,12,1012,855,131,26,261,87,174,13,8,5,10,4,6,0,0,0,AR04
106485,University of Arkansas at Monticello,UAM,Highway 425 South,Monticello,AR,71656,-91.811153,33.590909,Public,Graduate degree or certificate offering,No,Town: Remote,Master's Colleges & Universities: Medium Programs,"Postbaccalaureate: Education-dominant, with Arts & Sciences",Very high undergraduate,"Four-year, small, primarily residential",545,165,380,3,2,1,545,363,142,40,155,57,98,2,2,0,0,0,0,0,0,0,AR04
106704,University of Central Arkansas, ,201 Donaghey Ave,Conway,AR,72035-0001,-92.457672,35.077945,Public,Graduate degree or certificate offering,No,City: Small,Doctoral/Professional Universities,Research Doctoral: Professional-dominant,High undergraduate,"Four-year, medium, primarily residential",2221,583,1638,77,39,38,2221,1104,739,378,536,156,380,34,17,17,15,2,13,0,0,0,AR02
107044,Harding University, ,915 E. Market Ave.,Searcy,AR,72149-5615,-91.726143,35.247386,Private not-for-profit,Graduate degree or certificate offering,No,Town: Distant,Doctoral/Professional Universities,Research Doctoral: Single program-Education,High undergraduate,"Four-year, medium, highly residential",1319,481,838,16,11,5,1319,508,292,519,298,112,186,9,5,4,8,6,2,0,0,0,AR02
107071,Henderson State University, ,1100 Henderson Street,Arkadelphia,AR,71999-0001,-93.059703,34.128155,Public,Graduate degree or certificate offering,No,Town: Distant,Master's Colleges & Universities: Medium Programs,"Postbaccalaureate: Education-dominant, with Arts & Sciences",Very high undergraduate,"Four-year, small, highly residential",715,189,526,4,2,2,715,527,158,30,177,47,130,3,2,1,0,0,0,0,0,0,AR04
107080,Hendrix College, ,1600 Washington Ave,Conway,AR,72032-3080,-92.443256,35.101565,Private not-for-profit,Graduate degree or certificate offering,No,City: Small,Baccalaureate Colleges: Arts & Sciences Focus,Postbaccalaureate: Single program-Business,Very high undergraduate,"Four-year, small, highly residential",14,8,6,0,0,0,14,0,0,14,11,7,4,0,0,0,0,0,0,0,0,0,AR02
107141,John Brown University, ,2000 W University St,Siloam Springs,AR,72761,-94.560283,36.189812,Private not-for-profit,Graduate degree or certificate offering,No,Town: Distant,Master's Colleges & Universities: Medium Programs,"Postbaccalaureate: Other-dominant, with other professional programs",High undergraduate,"Four-year, small, highly residential",754,244,510,13,6,7,754,393,316,45,166,58,108,1,0,1,0,0,0,0,0,0,AR03
107512,Ouachita Baptist University,OBU,410 Ouachita St,Arkadelphia,AR,71998-0001,-93.052471,34.126093,Private not-for-profit,Graduate degree or certificate offering,No,Town: Distant,Baccalaureate Colleges: Arts & Sciences Focus,Not classified (Exclusively Undergraduate),Very high undergraduate,"Four-year, small, highly residential",81,4,77,0,0,0,81,0,81,0,0,0,0,0,0,0,0,0,0,0,0,0,AR04
107877,Williams Baptist University, ,60 W Fulbright Avenue,Walnut Ridge,AR,72476,-90.940277,36.125676,Private not-for-profit,Graduate degree or certificate offering,No,Rural: Distant,Baccalaureate Colleges: Diverse Fields,Postbaccalaureate: Single program-Education,Very high undergraduate,"Four-year, very small, highly residential",32,12,20,0,0,0,32,32,0,0,8,3,5,0,0,0,0,0,0,0,0,0,AR01
107983,Southern Arkansas University Main Campus, ,100 E. University,Magnolia,AR,71753,-93.235922,33.291618,Public,Graduate degree or certificate offering,No,Town: Remote,Master's Colleges & Universities: Larger Programs,"Postbaccalaureate: Education-dominant, with Arts & Sciences",High undergraduate,"Four-year, medium, highly residential",1446,469,977,180,94,86,1446,1228,174,44,356,127,229,73,35,38,0,0,0,0,0,0,AR04
108092,University of Arkansas-Fort Smith,UA Fort Smith; UAFS,5210 Grand Ave,Fort Smith,AR,72913-3649,-94.373729,35.384184,Public,Graduate degree or certificate offering,No,City: Small,Baccalaureate Colleges: Diverse Fields,Postbaccalaureate: Single program-Other,Very high undergraduate,"Four-year, medium, primarily nonresidential",67,15,52,0,0,0,67,67,0,0,16,4,12,0,0,0,0,0,0,0,0,0,AR03
108232,Academy of Art University, ,79 New Montgomery,San Francisco,CA,94105,-122.400578,37.787943,Private for-profit,Graduate degree or certificate offering,No,City: Large,Master's Colleges & Universities: Larger Programs,"Postbaccalaureate: Other-dominant, with Arts & Sciences",Majority undergraduate,"Four-year, medium, primarily nonresidential",3684,1250,2434,1446,495,951,3684,2300,789,595,849,276,573,477,154,323,0,0,0,0,0,0,CA11
108269,Academy of Chinese Culture and Health Sciences,ACCHS,"1600 Broadway, Ste. 200",Oakland,CA,94612,-122.269839,37.805972,Private not-for-profit,Graduate degree or certificate offering,No,City: Large,Special Focus Four-Year: Other Health Professions Schools,Postbaccalaureate: Single program-Other,Exclusively graduate,Exclusively graduate/professional,121,30,91,0,0,0,121,0,121,0,10,1,9,0,0,0,6,2,4,0,0,0,CA12
108861,Berkeley School of Theology,BST,2606 Dwight Way,Berkeley,CA,94704-3029,-122.256149,37.865252,Private not-for-profit,Graduate degree or certificate offering,No,City: Midsize,Special Focus Four-Year: Faith-Related Institutions,Postbaccalaureate: Single program-Other,Exclusively graduate,Exclusively graduate/professional,54,35,19,8,7,1,54,47,0,7,18,11,7,1,1,0,0,0,0,0,0,0,CA12
108870,American Film Institute Conservatory,AFI Conservatory,2021 N Western Ave,Los Angeles,CA,90027-1625,-118.310018,34.10767,Private not-for-profit,Graduate degree or certificate offering,No,City: Large,"Special Focus Four-Year: Arts, Music & Design Schools",Postbaccalaureate: Single program-Other,Exclusively graduate,Exclusively graduate/professional,383,194,189,140,61,79,383,0,383,0,73,28,45,32,12,20,0,0,0,0,0,0,CA30
109086,American Conservatory Theater, ,415 Geary Street,San Francisco,CA,94102,-122.410265,37.786923,Private not-for-profit,Graduate degree or certificate offering,No,City: Large,"Special Focus Four-Year: Arts, Music & Design Schools",Postbaccalaureate: Single program-Other,Majority graduate,Exclusively graduate/professional,23,11,12,2,2,0,23,0,0,23,12,7,5,1,1,0,0,0,0,0,0,0,CA11
109651,Art Center College of Design, ,1700 Lida St,Pasadena,CA,91103,-118.185102,34.169031,Private not-for-profit,Graduate degree or certificate offering,No,City: Midsize,Master's Colleges & Universities: Small Programs,"Postbaccalaureate: Other-dominant, with Arts & Sciences",High undergraduate,"Four-year, small, primarily nonresidential",328,143,185,204,73,131,328,328,0,0,90,47,43,49,24,25,0,0,0,0,0,0,CA30
109785,Azusa Pacific University, ,901 E Alosta,Azusa,CA,91702-7000,-117.888375,34.130047,Private not-for-profit,Graduate degree or certificate offering,No,Suburb: Large,Doctoral Universities: High Research Activity,Research Doctoral: Professional-dominant,Majority undergraduate,"Four-year, medium, highly residential",5396,1451,3945,177,71,106,5396,5396,0,0,974,285,689,50,20,30,82,20,62,0,0,0,CA31
110060,Bethesda University,Bethesda University,730 N. Euclid St,Anaheim,CA,92801,-117.941323,33.842295,Private not-for-profit,Graduate degree or certificate offering,No,City: Large,Baccalaureate Colleges: Diverse Fields,"Postbaccalaureate: Business-dominant, with Arts & Sciences",Majority undergraduate,"Four-year, very small, primarily nonresidential",142,82,60,100,55,45,142,110,31,1,40,21,19,32,16,16,0,0,0,0,0,0,CA46
110097,Biola University, ,13800 Biola Ave,La Mirada,CA,90639-0001,-118.014374,33.906203,Private not-for-profit,Graduate degree or certificate offering,No,Suburb: Large,Doctoral/Professional Universities,Research Doctoral: Professional-dominant,Majority undergraduate,"Four-year, medium, highly residential",2478,1361,1117,397,224,173,2478,1868,506,104,427,225,202,30,16,14,35,9,26,2,1,1,CA38
110316,California Institute of Integral Studies,CIIS,1453 Mission Street,San Francisco,CA,94103,-122.416102,37.774924,Private not-for-profit,Graduate degree or certificate offering,No,City: Large,Doctoral/Professional Universities,Research Doctoral: Humanities/social sciences-dominant,Majority graduate,"Four-year, small, primarily nonresidential",1879,428,1451,296,39,257,1879,1879,0,0,277,64,213,24,7,17,53,16,37,4,1,3,CA11
110361,California Baptist University,CBU,8432 Magnolia Ave,Riverside,CA,92504-3297,-117.425619,33.929321,Private not-for-profit,Graduate degree or certificate offering,No,City: Large,Master's Colleges & Universities: Larger Programs,Research Doctoral: Professional-dominant,High undergraduate,"Four-year, medium, primarily residential",4411,1247,3164,205,98,107,4411,1222,1456,1733,1310,398,912,94,41,53,14,6,8,0,0,0,CA39
110370,California College of the Arts, ,1111 Eighth Street,San Francisco,CA,94107-2247,-122.399451,37.767485,Private not-for-profit,Graduate degree or certificate offering,No,City: Large,"Special Focus Four-Year: Arts, Music & Design Schools","Postbaccalaureate: Other-dominant, with Arts & Sciences",High undergraduate,"Four-year, small, highly residential",396,136,260,190,59,131,396,284,109,3,171,57,114,85,26,59,0,0,0,0,0,0,CA11
110398,University of California-Hastings College of Law,UC Hastings,200 McAllister Street,San Francisco,CA,94102-4978,-122.4157,37.781137,Public,Graduate degree or certificate offering,No,City: Large,Special Focus Four-Year: Law Schools,"Postbaccalaureate: Other-dominant, with other professional programs",Exclusively graduate,Exclusively graduate/professional,1034,403,631,28,8,20,1034,0,227,807,22,8,14,7,2,5,0,0,0,0,0,0,CA11
110404,California Institute of Technology,Caltech,1200 E California Blvd,Pasadena,CA,91125,-118.125878,34.137349,Private not-for-profit,Graduate degree or certificate offering,No,City: Midsize,Doctoral Universities: Very High Research Activity,Research Doctoral: STEM-dominant,Majority graduate,"Four-year, small, highly residential",1406,956,450,636,449,187,1406,852,327,227,116,71,45,56,38,18,184,126,58,85,60,25,CA28
110413,California Lutheran University, ,60 W Olsen Rd,Thousand Oaks,CA,91360-2787,-118.878924,34.224566,Private not-for-profit,Graduate degree or certificate offering,No,City: Midsize,Master's Colleges & Universities: Larger Programs,"Postbaccalaureate: Business-dominant, with Arts & Sciences",Majority undergraduate,"Four-year, medium, highly residential",1570,533,1037,248,137,111,1570,658,813,99,440,164,276,98,51,47,0,0,0,0,0,0,CA26
110422,California Polytechnic State University-San Luis Obispo,Cal Poly,1 Grand Ave.,San Luis Obispo,CA,93407,-120.657311,35.299513,Public,Graduate degree or certificate offering,No,Suburb: Small,Master's Colleges & Universities: Larger Programs,Postbaccalaureate: Comprehensive programs,Very high undergraduate,"Four-year, large, primarily residential",1182,597,585,45,35,10,1182,588,563,31,520,269,251,23,18,5,0,0,0,0,0,0,CA24
110468,Alliant International University-San Diego, ,10455 Pomerado Road,San Diego,CA,92131,-117.094398,32.897056,Private for-profit,Graduate degree or certificate offering,No,City: Large,Doctoral/Professional Universities,Research Doctoral: Professional-dominant,Majority graduate,"Four-year, small, primarily nonresidential",3898,983,2915,44,20,24,3898,3898,0,0,588,173,415,9,5,4,249,60,189,10,4,6,CA51
110486,California State University-Bakersfield,CSU Bakersfield,9001 Stockdale Hwy,Bakersfield,CA,93311-1099,-119.104711,35.350005,Public,Graduate degree or certificate offering,No,City: Large,Master's Colleges & Universities: Larger Programs,Research Doctoral: Single program-Education,High undergraduate,"Four-year, large, primarily nonresidential",2052,520,1532,53,15,38,2052,1958,85,9,481,114,367,19,6,13,0,0,0,0,0,0,CA20
110495,California State University-Stanislaus,Stanislaus State,One University Circle,Turlock,CA,95382-0299,-120.852511,37.52577,Public,Graduate degree or certificate offering,No,Suburb: Small,Master's Colleges & Universities: Larger Programs,Research Doctoral: Single program-Education,High undergraduate,"Four-year, medium, primarily nonresidential",1508,377,1131,33,6,27,1508,1161,340,7,347,98,249,7,2,5,0,0,0,0,0,0,CA05
110510,California State University-San Bernardino,Cal State San Bernardino,5500 University Parkway,San Bernardino,CA,92407-2393,-117.323801,34.182622,Public,Graduate degree or certificate offering,No,City: Midsize,Doctoral Universities: High Research Activity,Research Doctoral: Single program-Education,High undergraduate,"Four-year, large, primarily nonresidential",2863,978,1885,174,73,101,2863,2801,62,0,692,235,457,48,24,24,0,0,0,0,0,0,CA33
110529,California State Polytechnic University-Pomona, ,3801 W Temple Avenue,Pomona,CA,91768,-117.821476,34.057912,Public,Graduate degree or certificate offering,No,Suburb: Large,Master's Colleges & Universities: Larger Programs,Research Doctoral: Single program-Education,Very high undergraduate,"Four-year, large, primarily nonresidential",2465,1175,1290,235,107,128,2465,2373,92,0,444,196,248,64,25,39,0,0,0,0,0,0,CA35
110538,California State University-Chico, ,First and Normal Sts,Chico,CA,95929-0150,-121.844859,39.729712,Public,Graduate degree or certificate offering,No,City: Midsize,Master's Colleges & Universities: Larger Programs,Postbaccalaureate: Comprehensive programs,Very high undergraduate,"Four-year, large, primarily nonresidential",1236,356,880,64,29,35,1236,860,376,0,312,65,247,23,12,11,0,0,0,0,0,0,CA01
110547,California State University-Dominguez Hills,CSUDH,1000 E Victoria St,Carson,CA,90747-0005,-118.255917,33.864766,Public,Graduate degree or certificate offering,No,City: Small,Master's Colleges & Universities: Larger Programs,Postbaccalaureate: Comprehensive programs,High undergraduate,"Four-year, large, primarily nonresidential",3116,908,2208,136,54,82,3116,2318,791,7,760,214,546,45,23,22,0,0,0,0,0,0,CA44
110556,California State University-Fresno, ,5241 N Maple Ave,Fresno,CA,93740,-119.744569,36.811154,Public,Graduate degree or certificate offering,No,City: Large,Doctoral Universities: High Research Activity,Research Doctoral: Single program-Education,Very high undergraduate,"Four-year, large, primarily nonresidential",3129,1029,2100,231,105,126,3129,2271,855,3,848,284,564,80,35,45,0,0,0,0,0,0,CA20
110565,California State University-Fullerton,Cal State Fullerton,800 N State College Blvd,Fullerton,CA,92831-3599,-117.885446,33.881506,Public,Graduate degree or certificate offering,No,Suburb: Large,Doctoral Universities: High Research Activity,Research Doctoral: Single program-Education,Very high undergraduate,"Four-year, large, primarily nonresidential",5768,2185,3583,552,277,275,5768,5424,317,27,1575,639,936,260,137,123,0,0,0,0,0,0,CA45
110574,California State University-East Bay,Cal State East Bay,25800 Carlos Bee Blvd,Hayward,CA,94542,-122.054135,37.657694,Public,Graduate degree or certificate offering,No,Suburb: Large,Doctoral Universities: High Research Activity,Research Doctoral: Single program-Education,High undergraduate,"Four-year, large, primarily nonresidential",3642,1266,2376,612,222,390,3642,3456,185,1,1190,402,788,260,90,170,0,0,0,0,0,0,CA14
110583,California State University-Long Beach,Cal State Long Beach,1250 Bellflower Blvd,Long Beach,CA,90840-0115,-118.11204,33.782818,Public,Graduate degree or certificate offering,No,City: Large,Doctoral Universities: High Research Activity,Research Doctoral: Single program-Education,High undergraduate,"Four-year, large, primarily nonresidential",6709,2507,4202,488,239,249,6709,5016,1595,98,1629,620,1009,189,93,96,0,0,0,0,0,0,CA42
110592,California State University-Los Angeles,Cal State LA,5151 State University Dr,Los Angeles,CA,90032-8506,-118.168965,34.066927,Public,Graduate degree or certificate offering,No,City: Large,Master's Colleges & Universities: Larger Programs,Research Doctoral: Single program-Education,High undergraduate,"Four-year, large, primarily nonresidential",4438,1604,2834,395,158,237,4438,3719,678,41,1178,425,753,131,49,82,0,0,0,0,0,0,CA34
110608,California State University-Northridge,CSUN,18111 Nordhoff St,Northridge,CA,91330,-118.529319,34.240126,Public,Graduate degree or certificate offering,No,City: Large,Master's Colleges & Universities: Larger Programs,Research Doctoral: Single program-Education,High undergraduate,"Four-year, large, primarily nonresidential",6507,2170,4337,359,155,204,6507,4375,2028,104,1634,516,1118,114,47,67,0,0,0,0,0,0,CA32
110617,California State University-Sacramento,Sacramento State,6000 J St,Sacramento,CA,95819-2694,-121.423549,38.559415,Public,Graduate degree or certificate offering,No,City: Large,Master's Colleges & Universities: Larger Programs,Research Doctoral: Single program-Education,Very high undergraduate,"Four-year, large, primarily nonresidential",3557,1201,2356,301,133,168,3557,1665,1563,329,1023,331,692,109,52,57,0,0,0,0,0,0,CA07
110635,University of California-Berkeley,UC Berkeley,200 California Hall,Berkeley,CA,94720,-122.260463,37.871918,Public,Graduate degree or certificate offering,No,City: Midsize,Doctoral Universities: Very High Research Activity,"Research Doctoral: Comprehensive programs, no medical/veterinary school",Majority undergraduate,"Four-year, large, primarily residential",12524,6691,5833,3407,2084,1323,12524,6100,5654,770,2905,1574,1331,1001,567,434,794,502,292,231,177,54,CA12
110644,University of California-Davis,UC Davis,One Shields Avenue,Davis,CA,95616-8678,-121.749567,38.539667,Public,Graduate degree or certificate offering,No,Suburb: Small,Doctoral Universities: Very High Research Activity,"Research Doctoral: Comprehensive programs, with medical/veterinary school",High undergraduate,"Four-year, large, primarily residential",8347,3682,4665,1813,1032,781,8347,1257,6680,410,1225,557,668,357,195,162,472,243,229,157,87,70,CA04
110653,University of California-Irvine,UCI  UC Irvine,501 Aldrich Hall,Irvine,CA,92697,-117.841248,33.648434,Public,Graduate degree or certificate offering,No,City: Large,Doctoral Universities: Very High Research Activity,"Research Doctoral: Comprehensive programs, with medical/veterinary school",High undergraduate,"Four-year, large, primarily residential",7107,3572,3535,1888,1122,766,7107,4306,2510,291,1609,808,801,466,280,186,396,219,177,140,84,56,CA47
110662,University of California-Los Angeles,UCLA,405 Hilgard Ave,Los Angeles,CA,90095-1405,-118.442179,34.07178,Public,Graduate degree or certificate offering,No,City: Large,Doctoral Universities: Very High Research Activity,"Research Doctoral: Comprehensive programs, with medical/veterinary school",Majority undergraduate,"Four-year, large, highly residential",13528,6979,6549,3050,1839,1211,13528,3805,7306,2417,3137,1649,1488,803,496,307,696,378,318,245,167,78,CA36
110671,University of California-Riverside,UC Riverside,900 University Ave,Riverside,CA,92521,-117.32741,33.97246,Public,Graduate degree or certificate offering,No,City: Large,Doctoral Universities: Very High Research Activity,"Research Doctoral: Comprehensive programs, with medical/veterinary school",High undergraduate,"Four-year, large, primarily residential",3981,2151,1830,1350,818,532,3981,1247,2388,346,837,441,396,324,202,122,268,153,115,94,67,27,CA39
110680,University of California-San Diego,UCSD  UC San Diego,9500 Gilman Dr,La Jolla,CA,92093,-117.235866,32.877749,Public,Graduate degree or certificate offering,No,City: Large,Doctoral Universities: Very High Research Activity,"Research Doctoral: Comprehensive programs, with medical/veterinary school",High undergraduate,"Four-year, large, highly residential",8114,4666,3448,3209,2068,1141,8114,1361,6550,203,2170,1324,846,1116,719,397,508,312,196,212,152,60,CA50
110699,University of California-San Francisco,"UCSF  UC San Francisco  University of California at San Francisco  University of California, San Francisco",500 Parnassus Ave,San Francisco,CA,94143-0244,-122.458489,37.763737,Public,Graduate degree or certificate offering,No,City: Large,Special Focus Four-Year: Research Institutions,Research Doctoral: STEM-dominant,Exclusively graduate,Exclusively graduate/professional,3313,1191,2122,104,33,71,3313,106,2532,675,284,67,217,12,1,11,135,61,74,14,7,7,CA11
110705,University of California-Santa Barbara,UCSB  UC Santa Barbara,5221 Cheadle Hall,Santa Barbara,CA,93106,-119.846426,34.416297,Public,Graduate degree or certificate offering,No,Suburb: Midsize,Doctoral Universities: Very High Research Activity,"Research Doctoral: Comprehensive programs, no medical/veterinary school",High undergraduate,"Four-year, large, primarily residential",3073,1639,1434,931,575,356,3073,2758,310,5,511,250,261,128,78,50,287,164,123,88,60,28,CA24
110714,University of California-Santa Cruz,UC Santa Cruz,1156 High St,Santa Cruz,CA,95064-1011,-122.058801,36.995584,Public,Graduate degree or certificate offering,No,City: Small,Doctoral Universities: Very High Research Activity,Research Doctoral: STEM-dominant,High undergraduate,"Four-year, large, highly residential",2088,1099,989,556,319,237,2088,296,1262,530,428,218,210,137,75,62,160,83,77,28,17,11,CA19
110778,Sofia University,Institute of Transpersonal Psychology,1069 East Meadow Cr,Palo Alto,CA,94303,-122.10866,37.430325,Private for-profit,Graduate degree or certificate offering,No,City: Small,Special Focus Four-Year: Other Special Focus Institutions,Research Doctoral: Single program-Other,Majority graduate,"Four-year, very small, primarily nonresidential",2009,973,1036,1788,916,872,2009,1764,235,10,664,349,315,646,342,304,6,5,1,0,0,0,CA16
111045,Haven University, ,12761 Euclid St.,Garden Grove,CA,92840-1340,-117.939412,33.777392,Private not-for-profit,Graduate degree or certificate offering,No,Suburb: Large,Special Focus Four-Year: Faith-Related Institutions,Postbaccalaureate: Single program-Other,Majority undergraduate,"Four-year, very small, primarily nonresidential",40,22,18,22,9,13,40,0,0,40,0,0,0,0,0,0,0,0,0,0,0,0,CA45
111081,California Institute of the Arts,CalArts,24700 W McBean Pky,Valencia,CA,91355-2397,-118.566837,34.39327,Private not-for-profit,Graduate degree or certificate offering,No,Suburb: Large,Master's Colleges & Universities: Medium Programs,Research Doctoral: Single program-Other,Majority undergraduate,"Four-year, small, highly residential",438,176,262,161,38,123,438,0,0,438,161,63,98,54,12,42,2,2,0,1,1,0,CA27
111188,California State University Maritime Academy,California State University Maritime Academy,200 Maritime Academy Dr,Vallejo,CA,94590-8181,-122.231551,38.069061,Public,Graduate degree or certificate offering,No,City: Midsize,Baccalaureate Colleges: Diverse Fields,Postbaccalaureate: Single program-Business,Very high undergraduate,"Four-year, very small, highly residential",50,34,16,4,3,1,50,50,0,0,18,13,5,0,0,0,0,0,0,0,0,0,CA08
111391,California Western School of Law, ,225 Cedar St,San Diego,CA,92101-3046,-117.162416,32.722192,Private not-for-profit,Graduate degree or certificate offering,No,City: Large,Special Focus Four-Year: Law Schools,Postbaccalaureate: Single program-Other,Exclusively graduate,Exclusively graduate/professional,854,379,475,15,6,9,854,854,0,0,103,54,49,1,0,1,0,0,0,0,0,0,CA50
111948,Chapman University, ,One University Dr.,Orange,CA,92866,-117.852518,33.79302,Private not-for-profit,Graduate degree or certificate offering,No,City: Midsize,Doctoral Universities: High Research Activity,Research Doctoral: STEM-dominant,High undergraduate,"Four-year, medium, highly residential",2570,983,1587,224,106,118,2570,32,1503,1035,579,186,393,62,32,30,36,13,23,8,1,7,CA40
111966,Charles R Drew University of Medicine and Science,CDU,1731 E 120th St,Los Angeles,CA,90059,-118.242791,33.925658,Private not-for-profit,Graduate degree or certificate offering,No,Suburb: Large,Special Focus Four-Year: Other Health Professions Schools,"Postbaccalaureate: Other-dominant, with Arts & Sciences",Majority graduate,"Four-year, very small, primarily nonresidential",969,260,709,7,1,6,969,0,969,0,288,79,209,2,1,1,0,0,0,0,0,0,CA43
112075,Concordia University-Irvine,Concordia University Irvine,1530 Concordia West,Irvine,CA,92612-3203,-117.812305,33.653665,Private not-for-profit,Graduate degree or certificate offering,No,City: Large,Doctoral/Professional Universities,Research Doctoral: Single program-Education,Majority graduate,"Four-year, medium, highly residential",3485,1342,2143,66,44,22,3485,3485,0,0,1092,445,647,26,16,10,22,5,17,0,0,0,CA47
112084,San Diego Christian College, ,200 Riverview Parkway,Santee,CA,92071,-116.978112,32.842404,Private not-for-profit,Graduate degree or certificate offering,No,Suburb: Large,Master's Colleges & Universities: Small Programs,"Postbaccalaureate: Education-dominant, with other professional programs",Very high undergraduate,"Four-year, very small, primarily residential",80,30,50,0,0,0,80,80,0,0,46,10,36,0,0,0,0,0,0,0,0,0,CA48
112127,Church Divinity School of the Pacific,CDSP,2451 Ridge Road,Berkeley,CA,94709-1211,-122.261122,37.876184,Private not-for-profit,Graduate degree or certificate offering,No,City: Midsize,Special Focus Four-Year: Faith-Related Institutions,Postbaccalaureate: Single program-Other,Exclusively graduate,Exclusively graduate/professional,86,38,48,2,0,2,86,86,0,0,16,5,11,0,0,0,0,0,0,0,0,0,CA12
112251,Claremont Graduate University, ,150 E Tenth St,Claremont,CA,91711-6160,-117.713703,34.103585,Private not-for-profit,Graduate degree or certificate offering,No,Suburb: Large,Doctoral Universities: High Research Activity,"Research Doctoral: Comprehensive programs, no medical/veterinary school",Exclusively graduate,Exclusively graduate/professional,2168,907,1261,449,228,221,2168,824,696,648,427,183,244,102,55,47,123,60,63,39,26,13,CA28
112260,Claremont McKenna College, ,500 E 9th St,Claremont,CA,91711-6400,-117.711188,34.102154,Private not-for-profit,Graduate degree or certificate offering,No,Suburb: Large,Baccalaureate Colleges: Arts & Sciences Focus,Postbaccalaureate: Single program-Business,Very high undergraduate,"Four-year, small, highly residential",2,1,1,0,0,0,2,2,0,0,10,8,2,1,0,1,0,0,0,0,0,0,CA28
112394,University of Silicon Valley, ,191 Baypointe Parkway,San Jose,CA,95134,-121.94087,37.414049,Private for-profit,Graduate degree or certificate offering,No,City: Large,Baccalaureate Colleges: Diverse Fields,Postbaccalaureate: Single program-Business,Very high undergraduate,"Four-year, very small, primarily residential",13,8,5,1,0,1,13,13,0,0,6,3,3,1,0,1,0,0,0,0,0,0,CA17
112525,Western University of Health Sciences,WesternU,309 E 2nd St,Pomona,CA,91766-1854,-117.747732,34.058092,Private not-for-profit,Graduate degree or certificate offering,No,Suburb: Large,Special Focus Four-Year: Medical Schools & Centers,"Postbaccalaureate: Other-dominant, with Arts & Sciences",Exclusively graduate,Exclusively graduate/professional,4221,1592,2629,78,30,48,4221,28,271,3922,236,68,168,7,3,4,0,0,0,0,0,0,CA35
113537,Dell'Arte International School of Physical Theatre, ,131 H Street,Blue Lake,CA,95525-0816,-123.988808,40.880924,Private not-for-profit,No graduate offering,No,Rural: Fringe,"Special Focus Four-Year: Arts, Music & Design Schools",Postbaccalaureate: Single program-Other,Exclusively graduate,Exclusively graduate/professional,5,3,2,0,0,0,5,0,0,5,5,3,2,0,0,0,0,0,0,0,0,0,CA02
113582,Design Institute of San Diego, ,8555 Commerce Ave,San Diego,CA,92121,-117.167374,32.880926,Private for-profit,Graduate degree or certificate offering,No,City: Large,"Special Focus Four-Year: Arts, Music & Design Schools",Not classified (Exclusively Undergraduate),Very high undergraduate,"Four-year, very small, primarily nonresidential",10,0,10,0,0,0,10,0,0,10,0,0,0,0,0,0,0,0,0,0,0,0,CA51
113698,Dominican University of California,DUofC,50 Acacia Ave,San Rafael,CA,94901-2298,-122.512051,37.981279,Private not-for-profit,Graduate degree or certificate offering,No,City: Small,Master's Colleges & Universities: Medium Programs,"Postbaccalaureate: Other-dominant, with Arts & Sciences",High undergraduate,"Four-year, small, primarily residential",497,109,388,13,4,9,497,0,483,14,166,33,133,6,2,4,0,0,0,0,0,0,CA02
113704,Dominican School of Philosophy & Theology,The Dominican School|DSPT|St. Albert's College|College of St. Albert the Great,2301 Vine Street,Berkeley,CA,94708-1816,-122.264612,37.881099,Private not-for-profit,Graduate degree or certificate offering,No,City: Midsize,Master's Colleges & Universities: Small Programs,"Postbaccalaureate: Other-dominant, with Arts & Sciences",Exclusively graduate,Exclusively graduate/professional,76,65,11,5,5,0,76,14,50,12,22,21,1,2,2,0,0,0,0,0,0,0,CA12
114114,Emperor's College of Traditional Oriental Medicine,Emperor's College,"1807 Wilshire Blvd, Ste #200",Santa Monica,CA,90403,-118.485119,34.030438,Private for-profit,Graduate degree or certificate offering,No,City: Small,Special Focus Four-Year: Other Health Professions Schools,Postbaccalaureate: Single program-Other,Exclusively graduate,Exclusively graduate/professional,303,62,241,22,5,17,303,0,0,303,49,13,36,2,0,2,0,0,0,0,0,0,CA36
114123,Empire College, ,3035 Cleveland Ave,Santa Rosa,CA,95403-2126,-122.729337,38.468052,Private for-profit,Graduate degree or certificate offering,No,City: Midsize,Baccalaureate/Associate's Colleges: Mixed Baccalaureate/Associate's,Postbaccalaureate: Single program-Other,Majority undergraduate,"Four-year, small, primarily nonresidential",95,31,64,0,0,0,95,0,0,95,11,6,5,0,0,0,0,0,0,0,0,0,CA02
114354,FIDM-Fashion Institute of Design & Merchandising-Los Angeles,FIDM LA,919 S Grand Ave,Los Angeles,CA,90015-1421,-118.25993,34.044209,Private for-profit,Graduate degree or certificate offering,No,City: Large,Baccalaureate/Associate's Colleges: Mixed Baccalaureate/Associate's,Postbaccalaureate: Single program-Business,Very high undergraduate,"Four-year, small, primarily nonresidential",49,3,46,19,1,18,49,3,45,1,26,1,25,11,0,11,0,0,0,0,0,0,CA37
114549,Fielding Graduate University,Fielding|Fielding Institute|Fielding Graduate Institute,2020 De La Vina St,Santa Barbara,CA,93105-3538,-119.717161,34.42941,Private not-for-profit,Graduate degree or certificate offering,No,City: Small,Doctoral/Professional Universities,Research Doctoral: Professional-dominant,Exclusively graduate,Exclusively graduate/professional,1416,315,1101,9,3,6,1416,274,1098,44,132,28,104,2,0,2,123,31,92,2,1,1,CA24
114585,Five Branches University, ,200 7th Avenue,Santa Cruz,CA,95062,-121.998245,36.964348,Private for-profit,Graduate degree or certificate offering,No,Suburb: Midsize,Special Focus Four-Year: Other Health Professions Schools,Postbaccalaureate: Single program-Other,Exclusively graduate,Exclusively graduate/professional,488,117,371,62,21,41,488,260,228,0,42,9,33,6,3,3,0,0,0,0,0,0,CA19
114734,Franciscan School of Theology,FST,5998 Alcala Park,San Diego,CA,92110,-117.192073,32.770816,Private not-for-profit,Graduate degree or certificate offering,No,City: Large,Special Focus Four-Year: Faith-Related Institutions,Postbaccalaureate: Single program-Other,Exclusively graduate,Exclusively graduate/professional,66,34,32,1,0,1,66,0,0,66,9,3,6,0,0,0,0,0,0,0,0,0,CA51
114813,Fresno Pacific University, ,1717 S Chestnut Ave,Fresno,CA,93702-4709,-119.735199,36.726831,Private not-for-profit,Graduate degree or certificate offering,No,City: Large,Master's Colleges & Universities: Larger Programs,"Postbaccalaureate: Education-dominant, with Arts & Sciences",High undergraduate,"Four-year, medium, primarily nonresidential",1449,349,1100,9,6,3,1449,1449,0,0,271,81,190,4,4,0,0,0,0,0,0,0,CA21
114840,Fuller Theological Seminary, ,135 N Oakland Ave,Pasadena,CA,91182,-118.140261,34.14778,Private not-for-profit,Graduate degree or certificate offering,No,City: Midsize,Special Focus Four-Year: Faith-Related Institutions,Research Doctoral: Professional-dominant,Exclusively graduate,Exclusively graduate/professional,3433,1890,1543,806,559,247,3433,2306,669,458,419,206,213,50,24,26,35,23,12,4,3,1,CA28
115083,Golden Gate University, ,536 Mission Street,San Francisco,CA,94105-2968,-122.398969,37.789374,Private not-for-profit,Graduate degree or certificate offering,No,City: Large,Master's Colleges & Universities: Larger Programs,Research Doctoral: Professional-dominant,Majority graduate,"Four-year, small, primarily nonresidential",2474,1222,1252,165,62,103,2474,345,992,1137,493,233,260,103,30,73,10,5,5,6,2,4,CA11
115214,Graduate Theological Union,GTU,2400 Ridge Rd,Berkeley,CA,94709,-122.261847,37.87554,Private not-for-profit,Graduate degree or certificate offering,No,City: Midsize,Special Focus Four-Year: Faith-Related Institutions,Research Doctoral: Single program-Other,Exclusively graduate,Exclusively graduate/professional,235,123,112,66,40,26,235,6,44,185,16,10,6,3,3,0,20,12,8,8,3,5,CA12
115728,Holy Names University,Holy Names College,3500 Mountain Blvd,Oakland,CA,94619-1699,-122.187804,37.802276,Private not-for-profit,Graduate degree or certificate offering,No,City: Large,Master's Colleges & Universities: Small Programs,"Postbaccalaureate: Education-dominant, with Arts & Sciences",High undergraduate,"Four-year, very small, highly residential",400,82,318,15,3,12,400,305,95,0,90,20,70,2,1,1,0,0,0,0,0,0,CA12
115746,Pacifica Graduate Institute, ,249 Lambert Rd,Carpinteria,CA,93013,-119.580414,34.420881,Private for-profit,Graduate degree or certificate offering,No,Rural: Fringe,Special Focus Four-Year: Other Health Professions Schools,Research Doctoral: Professional-dominant,Exclusively graduate,Exclusively graduate/professional,980,274,706,19,5,14,980,0,0,980,141,37,104,6,1,5,74,17,57,2,1,1,CA24
115755,California State Polytechnic University-Humboldt, ,1 Harpst Street,Arcata,CA,95521-8299,-124.078293,40.877481,Public,Graduate degree or certificate offering,No,Town: Remote,Master's Colleges & Universities: Larger Programs,Postbaccalaureate: Comprehensive programs,Very high undergraduate,"Four-year, medium, primarily residential",675,216,459,12,7,5,675,364,309,2,195,68,127,6,2,4,0,0,0,0,0,0,CA02
115773,Humphreys University-Stockton and Modesto Campuses, ,6650 Inglewood Ave,Stockton,CA,95207-3896,-121.316918,38.011489,Private not-for-profit,Graduate degree or certificate offering,No,City: Large,Master's Colleges & Universities: Small Programs,"Postbaccalaureate: Education-dominant, with Arts & Sciences",Majority undergraduate,"Four-year, very small, primarily nonresidential",247,74,173,1,0,1,247,247,0,0,95,28,67,0,0,0,0,0,0,0,0,0,CA09
116226,Interior Designers Institute, ,1061 Camelback Street,Newport Beach,CA,92660,-117.865722,33.641393,Private for-profit,Graduate degree or certificate offering,No,City: Small,"Special Focus Four-Year: Arts, Music & Design Schools",Postbaccalaureate: Single program-Other,Very high undergraduate,"Four-year, very small, primarily nonresidential",6,2,4,0,0,0,6,0,0,6,6,2,4,0,0,0,0,0,0,0,0,0,CA47
116846,American Jewish University,AJU,15600 Mulholland Dr,Los Angeles,CA,90077-1519,-118.471706,34.128153,Private not-for-profit,Graduate degree or certificate offering,No,City: Large,Baccalaureate Colleges: Arts & Sciences Focus,"Postbaccalaureate: Education-dominant, with other professional programs",Majority graduate,"Four-year, very small, highly residential",65,25,40,0,0,0,65,65,0,0,10,4,6,0,0,0,0,0,0,0,0,0,CA32
117104,Life Pacific University,LIFE Bible College,1100 W. Covina Blvd.,San Dimas,CA,91773-3298,-117.829388,34.098705,Private not-for-profit,Graduate degree or certificate offering,No,Suburb: Large,Baccalaureate Colleges: Diverse Fields,Postbaccalaureate: Single program-Other,High undergraduate,"Four-year, very small, highly residential",149,79,70,7,5,2,149,149,0,0,33,21,12,1,0,1,0,0,0,0,0,0,CA31
117140,University of La Verne,La Verne,1950 Third St,La Verne,CA,91750-4401,-117.773262,34.100855,Private not-for-profit,Graduate degree or certificate offering,No,Suburb: Large,Doctoral/Professional Universities,Research Doctoral: Professional-dominant,Majority undergraduate,"Four-year, medium, primarily nonresidential",3534,1165,2369,348,174,174,3534,3534,0,0,975,336,639,215,102,113,50,13,37,2,1,1,CA31
117168,Laguna College of Art and Design,LCAD,2222 Laguna Canyon Rd,Laguna Beach,CA,92651,-117.772564,33.561448,Private not-for-profit,Graduate degree or certificate offering,No,Rural: Fringe,"Special Focus Four-Year: Arts, Music & Design Schools",Postbaccalaureate: Single program-Other,Very high undergraduate,"Four-year, very small, primarily nonresidential",39,18,21,5,3,2,39,39,0,0,17,8,9,2,1,1,0,0,0,0,0,0,CA47
117520,Life Chiropractic College West,Life West,25001 Industrial Blvd,Hayward,CA,94545-2800,-122.117619,37.638099,Private not-for-profit,Graduate degree or certificate offering,No,Suburb: Large,Special Focus Four-Year: Other Health Professions Schools,Postbaccalaureate: Single program-Other,Exclusively graduate,Exclusively graduate/professional,733,401,332,16,10,6,733,0,733,0,0,0,0,0,0,0,0,0,0,0,0,0,CA14
117557,Lincoln University, ,401 15th Street,Oakland,CA,94612-2801,-122.269745,37.804788,Private not-for-profit,Graduate degree or certificate offering,No,City: Large,Special Focus Four-Year: Business & Management Schools,Postbaccalaureate: Single program-Business,Majority graduate,"Four-year, very small, primarily nonresidential",374,217,157,349,198,151,374,0,0,374,79,41,38,72,35,37,3,2,1,3,2,1,CA12
117575,Southern California Seminary, ,2075 E. Madison Avenue,El Cajon,CA,92019-1108,-116.905461,32.799614,Private not-for-profit,Graduate degree or certificate offering,No,Suburb: Large,Baccalaureate Colleges: Diverse Fields,"Postbaccalaureate: Other-dominant, with Arts & Sciences",Majority graduate,"Four-year, very small, primarily nonresidential",168,98,70,8,2,6,168,76,69,23,17,8,9,1,0,1,0,0,0,0,0,0,CA51
117627,La Sierra University, ,4500 Riverwalk Parkway,Riverside,CA,92505-8247,-117.500054,33.910704,Private not-for-profit,Graduate degree or certificate offering,No,City: Large,Master's Colleges & Universities: Medium Programs,Research Doctoral: Professional-dominant,High undergraduate,"Four-year, small, highly residential",594,219,375,99,46,53,594,1,0,593,114,45,69,21,9,12,6,2,4,2,1,1,CA41
117636,Loma Linda University, ,11139 Anderson Street,Loma Linda,CA,92350,-117.260605,34.051241,Private not-for-profit,Graduate degree or certificate offering,No,Suburb: Large,Doctoral Universities: High Research Activity,Research Doctoral: Professional-dominant,Majority graduate,"Four-year, medium, highly residential",3568,1333,2235,331,146,185,3568,263,933,2372,427,120,307,25,8,17,82,17,65,4,1,3,CA23
117672,Southern California University of Health Sciences,Los Angeles College of Chiropractic,16200 East Amber Valley Drive,Whittier,CA,90604,-117.983401,33.922966,Private not-for-profit,Graduate degree or certificate offering,No,Suburb: Large,Special Focus Four-Year: Other Health Professions Schools,Postbaccalaureate: Single program-Other,Majority graduate,"Four-year, very small, primarily nonresidential",1029,539,490,23,18,5,1029,191,818,20,46,18,28,0,0,0,0,0,0,0,0,0,CA38
117751,The Master's University and Seminary, ,21726 Placerita Canyon Road,Santa Clarita,CA,91321-1200,-118.518193,34.381755,Private not-for-profit,Graduate degree or certificate offering,No,Suburb: Large,Doctoral/Professional Universities,Research Doctoral: Single program-Other,High undergraduate,"Four-year, small, primarily residential",1151,974,177,35,32,3,1151,122,0,1029,169,125,44,13,13,0,27,27,0,1,1,0,CA27
117946,Loyola Marymount University, ,One Lmu Drive,Los Angeles,CA,90045-2659,-118.415744,33.97085,Private not-for-profit,Graduate degree or certificate offering,No,City: Large,Doctoral Universities: High Research Activity,Research Doctoral: Single program-Education,Majority undergraduate,"Four-year, medium, highly residential",3389,1247,2142,300,134,166,3389,3267,120,2,720,239,481,69,30,39,14,3,11,0,0,0,CA36
118541,Marymount California University, ,30800 Palos Verdes Drive East,Rancho Palos Verdes,CA,90275-6299,-118.333371,33.734887,Private not-for-profit,Graduate degree or certificate offering,No,Suburb: Large,Baccalaureate Colleges: Diverse Fields,"Postbaccalaureate: Business-dominant, with Arts & Sciences",High undergraduate,"Four-year, very small, highly residential",78,40,38,9,4,5,78,70,0,8,33,20,13,4,2,2,0,0,0,0,0,0,CA36
118888,Mills College, ,5000 MacArthur Blvd,Oakland,CA,94613,-122.182294,37.781425,Private not-for-profit,Graduate degree or certificate offering,No,City: Large,Master's Colleges & Universities: Medium Programs,Research Doctoral: Single program-Education,Majority undergraduate,"Four-year, very small, highly residential",394,79,315,10,4,6,394,38,356,0,130,27,103,0,0,0,8,2,6,0,0,0,CA12
119058,Middlebury Institute of International Studies at Monterey,MIIS,460 Pierce Street,Monterey,CA,93940,-121.897325,36.599736,Private not-for-profit,Graduate degree or certificate offering,No,Suburb: Midsize,Master's Colleges & Universities: Larger Programs,Postbaccalaureate: Comprehensive programs,Majority graduate,"Four-year, very small, primarily nonresidential",765,259,506,208,54,154,765,765,0,0,302,104,198,88,23,65,0,0,0,0,0,0,CA19
119173,Mount Saint Mary's University, ,12001 Chalon Rd,Los Angeles,CA,90049-1599,-118.482879,34.085315,Private not-for-profit,Graduate degree or certificate offering,No,City: Large,Master's Colleges & Universities: Larger Programs,"Postbaccalaureate: Other-dominant, with Arts & Sciences",Majority undergraduate,"Four-year, small, primarily residential",892,193,699,9,2,7,892,270,491,131,157,22,135,2,1,1,0,0,0,0,0,0,CA32
119605,National University, ,11255 North Torrey Pines Road,La Jolla,CA,92037-1011,-117.243026,32.909894,Private not-for-profit,Graduate degree or certificate offering,No,City: Large,Master's Colleges & Universities: Larger Programs,Postbaccalaureate: Comprehensive programs,Majority graduate,"Four-year, large, primarily nonresidential",15659,4834,10825,84,44,40,15659,2798,3395,9466,4339,1406,2933,55,25,30,0,0,0,0,0,0,CA50
119678,Naval Postgraduate School, ,1 University Circle,Monterey,CA,93943,-121.874248,36.597159,Public,Graduate degree or certificate offering,No,Suburb: Midsize,Master's Colleges & Universities: Larger Programs,Research Doctoral: STEM-dominant,Exclusively graduate,Exclusively graduate/professional,4007,3165,842,208,194,14,4007,1999,0,2008,1211,970,241,77,74,3,13,11,2,0,0,0,CA19
119775,Newschool of Architecture and Design, ,1249 F St,San Diego,CA,92101,-117.153305,32.71331,Private for-profit,Graduate degree or certificate offering,No,City: Large,Master's Colleges & Universities: Small Programs,"Postbaccalaureate: Other-dominant, with Arts & Sciences",High undergraduate,"Four-year, very small, primarily nonresidential",125,85,40,10,7,3,125,125,0,0,41,26,15,6,5,1,0,0,0,0,0,0,CA50
120166,San Francisco Bay University,SFBU,161 Mission Falls Lane,Fremont,CA,94539,-121.925953,37.477991,Private not-for-profit,Graduate degree or certificate offering,No,Suburb: Large,Special Focus Four-Year: Engineering and Other Technology-Related Schools,"Postbaccalaureate: Other-dominant, with Arts & Sciences",Majority graduate,"Four-year, very small, highly residential",47,19,28,40,16,24,47,0,0,47,14,7,7,12,5,7,0,0,0,0,0,0,CA17
120184,Notre Dame de Namur University,NDNU,1500 Ralston Ave,Belmont,CA,94002-1908,-122.284794,37.517111,Private not-for-profit,Graduate degree or certificate offering,No,Suburb: Large,Master's Colleges & Universities: Medium Programs,Research Doctoral: Single program-Other,Majority graduate,"Four-year, very small, primarily residential",459,107,352,33,9,24,459,24,189,246,190,44,146,19,8,11,1,0,1,0,0,0,CA15
120403,Otis College of Art and Design,"Otis Art Institute, Otis Parsons, Otis/Parsons",9045 Lincoln Blvd,Los Angeles,CA,90045-3505,-118.416615,33.956607,Private not-for-profit,Graduate degree or certificate offering,No,City: Large,"Special Focus Four-Year: Arts, Music & Design Schools","Postbaccalaureate: Other-dominant, with Arts & Sciences",Very high undergraduate,"Four-year, small, primarily residential",84,15,69,20,4,16,84,0,44,40,29,6,23,14,4,10,0,0,0,0,0,0,CA36
120537,Hope International University,Hope|HIU|College of Arts and Sciences|College of Business and Management|College of Education|Pacific Christian of Ministry and Biblical Studies|College of Psychology and Counseling|Fullerton|Orange County|California|,2500 E Nutwood Ave,Fullerton,CA,92831-3199,-117.88573,33.87616,Private not-for-profit,Graduate degree or certificate offering,No,Suburb: Large,Master's Colleges & Universities: Medium Programs,"Postbaccalaureate: Other-dominant, with other professional programs",Majority undergraduate,"Four-year, small, primarily residential",637,200,437,2,0,2,637,378,0,259,171,59,112,1,0,1,0,0,0,0,0,0,CA45
120698,Palo Alto University,Pacific Graduate School of Psychology,1791 Arastradero Rd,Palo Alto,CA,94304-1337,-122.187437,37.382216,Private not-for-profit,Graduate degree or certificate offering,No,Rural: Fringe,Special Focus Four-Year: Other Health Professions Schools,"Postbaccalaureate: Other-dominant, with Arts & Sciences",Majority graduate,"Four-year, very small, primarily nonresidential",1232,226,1006,37,6,31,1232,304,92,836,220,43,177,9,1,8,0,0,0,0,0,0,CA16
120768,Pacific Oaks College, ,45 W Eureka Street,Pasadena,CA,91103,-118.151323,34.153382,Private not-for-profit,Graduate degree or certificate offering,No,City: Midsize,Master's Colleges & Universities: Medium Programs,"Postbaccalaureate: Other-dominant, with other professional programs",Majority graduate,"Four-year, very small, primarily nonresidential",967,125,842,1,1,0,967,471,348,148,247,34,213,1,0,1,0,0,0,0,0,0,CA28
120795,Pacific School of Religion, ,1798 Scenic Ave,Berkeley,CA,94709,-122.263155,37.87669,Private not-for-profit,Graduate degree or certificate offering,No,City: Midsize,Special Focus Four-Year: Faith-Related Institutions,Postbaccalaureate: Single program-Other,Exclusively graduate,Exclusively graduate/professional,126,55,71,5,4,1,126,126,0,0,25,9,16,3,1,2,0,0,0,0,0,0,CA12
120838,Pacific States University, ,3424 Wilshire Blvd. 12th floor,Los Angeles,CA,90010-2263,-118.298408,34.061315,Private not-for-profit,Graduate degree or certificate offering,No,City: Large,Special Focus Four-Year: Business & Management Schools,"Postbaccalaureate: Business-dominant, with Arts & Sciences",Majority graduate,"Four-year, very small, primarily nonresidential",29,17,12,25,15,10,29,0,0,29,7,4,3,7,4,3,0,0,0,0,0,0,CA34
120865,Pacific Union College,PUC,One Angwin Ave,Angwin,CA,94508-9707,-122.440308,38.570585,Private not-for-profit,Graduate degree or certificate offering,No,Rural: Fringe,Baccalaureate Colleges: Diverse Fields,Not classified (Exclusively Undergraduate),Very high undergraduate,"Four-year, very small, highly residential",30,6,24,0,0,0,30,24,2,4,1,0,1,0,0,0,0,0,0,0,0,0,CA04
120883,University of the Pacific,Pacific | UOP | University of Pacific | Pacific University | U. Pacific | Univ. of Pacific | U. of Pacific,3601 Pacific Ave,Stockton,CA,95211-0197,-121.312301,37.981424,Private not-for-profit,Graduate degree or certificate offering,No,City: Large,Doctoral/Professional Universities,Research Doctoral: Professional-dominant,Majority undergraduate,"Four-year, medium, highly residential",2965,1088,1877,210,109,101,2965,23,0,2942,513,162,351,52,31,21,93,24,69,7,5,2,CA09
121150,Pepperdine University, ,24255 Pacific Coast Hwy,Malibu,CA,90263,-118.707077,34.037786,Private not-for-profit,Graduate degree or certificate offering,No,Suburb: Large,Doctoral/Professional Universities,Research Doctoral: Single program-Education,Majority graduate,"Four-year, medium, highly residential",8381,2665,5716,781,314,467,8381,8193,94,94,1956,652,1304,371,150,221,68,24,44,3,1,2,CA32
121309,Point Loma Nazarene University,PLNU,3900 Lomaland Dr,San Diego,CA,92106-2899,-117.250265,32.718391,Private not-for-profit,Graduate degree or certificate offering,No,City: Large,Master's Colleges & Universities: Larger Programs,"Postbaccalaureate: Education-dominant, with Arts & Sciences",High undergraduate,"Four-year, medium, primarily residential",1908,507,1401,25,7,18,1908,210,1076,622,401,108,293,15,1,14,0,0,0,0,0,0,CA50
121628,Pardee RAND Graduate School, ,1776 Main St,Santa Monica,CA,90401-3208,-118.490655,34.00973,Private not-for-profit,Graduate degree or certificate offering,No,City: Small,Special Focus Four-Year: Other Special Focus Institutions,Research Doctoral: Single program-Other,Exclusively graduate,Exclusively graduate/professional,125,69,56,26,13,13,125,0,32,93,15,10,5,4,3,1,10,7,3,3,2,1,CA36
121691,University of Redlands, ,1200 E. Colton Ave,Redlands,CA,92373-0999,-117.163218,34.064218,Private not-for-profit,Graduate degree or certificate offering,No,City: Small,Master's Colleges & Universities: Larger Programs,Research Doctoral: Single program-Education,Majority undergraduate,"Four-year, medium, highly residential",2044,661,1383,43,19,24,2044,1159,741,144,979,311,668,33,17,16,9,2,7,1,1,0,CA33
122117,Dongguk University Los Angeles, ,440 Shatto Pl,Los Angeles,CA,90020-1704,-118.289523,34.06597,Private not-for-profit,Graduate degree or certificate offering,No,City: Large,Special Focus Four-Year: Other Health Professions Schools,Postbaccalaureate: Single program-Other,Majority graduate,Exclusively graduate/professional,183,86,97,79,42,37,183,0,0,183,14,7,7,7,4,3,0,0,0,0,0,0,CA34
122296,Samuel Merritt University, ,3100 Telegraph Avenue,Oakland,CA,94609,-122.266331,37.82029,Private not-for-profit,Graduate degree or certificate offering,No,City: Large,Special Focus Four-Year: Other Health Professions Schools,Postbaccalaureate: Single program-Other,Majority graduate,"Four-year, small, primarily nonresidential",1526,401,1125,0,0,0,1526,449,0,1077,265,49,216,0,0,0,0,0,0,0,0,0,CA12
122409,San Diego State University, ,5500 Campanile Dr,San Diego,CA,92182-0001,-117.071228,32.77525,Public,Graduate degree or certificate offering,No,City: Large,Doctoral Universities: High Research Activity,Research Doctoral: Professional-dominant,High undergraduate,"Four-year, large, primarily nonresidential",5426,1934,3492,520,256,264,5426,2795,2311,320,1556,564,992,191,99,92,62,23,39,11,6,5,CA51
122436,University of San Diego,USD,5998 Alcala Park,San Diego,CA,92110-2492,-117.192073,32.770816,Private not-for-profit,Graduate degree or certificate offering,No,City: Large,Doctoral Universities: High Research Activity,Research Doctoral: Professional-dominant,Majority undergraduate,"Four-year, medium, primarily residential",3991,1659,2332,122,56,66,3991,1100,0,2891,1121,478,643,66,26,40,28,12,16,3,2,1,CA51
122454,San Francisco Art Institute,SFAI,800 Chestnut St,San Francisco,CA,94133-2299,-122.417,37.803575,Private not-for-profit,Graduate degree or certificate offering,No,City: Large,"Special Focus Four-Year: Arts, Music & Design Schools","Postbaccalaureate: Other-dominant, with Arts & Sciences",Majority undergraduate,"Four-year, very small, primarily nonresidential",35,6,29,4,2,2,35,24,0,11,14,3,11,3,1,2,0,0,0,0,0,0,CA11
122506,San Francisco Conservatory of Music,SFCM,50 Oak Street,San Francisco,CA,94102-6011,-122.420292,37.775543,Private not-for-profit,Graduate degree or certificate offering,No,City: Large,"Special Focus Four-Year: Arts, Music & Design Schools",Postbaccalaureate: Single program-Other,Majority undergraduate,"Four-year, very small, highly residential",170,73,97,78,27,51,170,0,0,170,66,29,37,35,14,21,0,0,0,0,0,0,CA11
122597,San Francisco State University, ,1600 Holloway Ave,San Francisco,CA,94132,-122.476799,37.721224,Public,Graduate degree or certificate offering,No,City: Large,Doctoral Universities: High Research Activity,Research Doctoral: Single program-Education,High undergraduate,"Four-year, large, primarily nonresidential",3893,1356,2537,346,131,215,3893,3064,813,16,1010,316,694,134,47,87,0,0,0,0,0,0,CA11
122612,University of San Francisco, ,2130 Fulton St,San Francisco,CA,94117-1080,-122.450477,37.776618,Private not-for-profit,Graduate degree or certificate offering,No,City: Large,Doctoral/Professional Universities,Research Doctoral: Single program-Education,Majority undergraduate,"Four-year, medium, primarily residential",5043,1740,3303,750,322,428,5043,4222,813,8,1634,560,1074,348,143,205,25,8,17,4,0,4,CA11
122649,San Joaquin College of Law,SJCL,901 Fifth St,Clovis,CA,93612-1312,-119.697657,36.82448,Private not-for-profit,Graduate degree or certificate offering,No,Suburb: Large,Special Focus Four-Year: Law Schools,Postbaccalaureate: Single program-Other,Exclusively graduate,Exclusively graduate/professional,183,62,121,0,0,0,183,183,0,0,0,0,0,0,0,0,0,0,0,0,0,0,CA20
122728,William Jessup University,San Jose Christian College,2121 University Avenue,Rocklin,CA,95765-3707,-121.292312,38.819728,Private not-for-profit,Graduate degree or certificate offering,No,Rural: Fringe,Master's Colleges & Universities: Medium Programs,"Postbaccalaureate: Business-dominant, with other professional programs",Majority undergraduate,"Four-year, small, primarily residential",693,297,396,253,134,119,693,119,15,559,221,91,130,68,39,29,0,0,0,0,0,0,CA03
122755,San Jose State University, ,One Washington Square,San Jose,CA,95192-0001,-121.880621,37.336569,Public,Graduate degree or certificate offering,No,City: Large,Master's Colleges & Universities: Larger Programs,Research Doctoral: Single program-Education,High undergraduate,"Four-year, large, primarily nonresidential",10119,3662,6457,1975,898,1077,10119,9488,618,13,2906,1063,1843,710,391,319,0,0,0,0,0,0,CA18
122931,Santa Clara University,SCU,500 El Camino Real,Santa Clara,CA,95053,-121.93784,37.348362,Private not-for-profit,Graduate degree or certificate offering,No,City: Midsize,Doctoral/Professional Universities,Research Doctoral: STEM-dominant,Majority undergraduate,"Four-year, medium, highly residential",3558,1635,1923,836,419,417,3558,527,0,3031,895,400,495,273,117,156,8,7,1,6,6,0,CA17
123095,Saybrook University, ,55 W Eureka Street,Pasadena,CA,91103,-118.152155,34.153103,Private not-for-profit,Graduate degree or certificate offering,No,City: Midsize,Doctoral/Professional Universities,Research Doctoral: Humanities/social sciences-dominant,Exclusively graduate,Exclusively graduate/professional,938,172,766,14,0,14,938,250,688,0,30,5,25,0,0,0,41,12,29,3,0,3,CA28
123165,Scripps College, ,1030 North Columbia Avenue,Claremont,CA,91711-3905,-117.711294,34.104147,Private not-for-profit,Graduate degree or certificate offering,No,Suburb: Large,Baccalaureate Colleges: Arts & Sciences Focus,Not classified (Exclusively Undergraduate),Very high undergraduate,"Four-year, very small, highly residential",55,22,33,0,0,0,55,0,0,55,0,0,0,0,0,0,0,0,0,0,0,0,CA28
123280,Shasta Bible College and Graduate School, ,2951 Goodwater Ave.,Redding,CA,96002,-122.314419,40.566034,Private not-for-profit,Graduate degree or certificate offering,No,City: Small,Special Focus Four-Year: Faith-Related Institutions,"Postbaccalaureate: Other-dominant, with other professional programs",High undergraduate,"Four-year, very small, primarily nonresidential",18,10,8,0,0,0,18,13,5,0,3,2,1,0,0,0,0,0,0,0,0,0,CA01
123448,Trinity Law School,Trinity Law School,2200 N Grand Ave,Santa Ana,CA,92705,-117.852059,33.766071,Private not-for-profit,Graduate degree or certificate offering,No,City: Large,Special Focus Four-Year: Law Schools,Postbaccalaureate: Single program-Other,Exclusively graduate,Exclusively graduate/professional,562,182,380,2,1,1,562,381,157,24,72,21,51,0,0,0,0,0,0,0,0,0,CA46
123457,Simpson University, ,2211 College View Drive,Redding,CA,96003-8606,-122.332981,40.61334,Private not-for-profit,Graduate degree or certificate offering,No,City: Small,Baccalaureate Colleges: Arts & Sciences Focus,"Postbaccalaureate: Education-dominant, with other professional programs",Very high undergraduate,"Four-year, very small, primarily residential",284,123,161,0,0,0,284,20,215,49,36,11,25,0,0,0,0,0,0,0,0,0,CA01
123554,Saint Mary's College of California,St. Marys College of California | St Marys College of California,1928 Saint Marys Road,Moraga,CA,94575,-122.109031,37.840731,Private not-for-profit,Graduate degree or certificate offering,No,Suburb: Large,Master's Colleges & Universities: Larger Programs,Research Doctoral: Single program-Education,High undergraduate,"Four-year, medium, highly residential",1366,516,850,32,17,15,1366,0,0,1366,349,140,209,27,17,10,7,0,7,0,0,0,CA10
123572,Sonoma State University, ,1801 E Cotati Ave,Rohnert Park,CA,94928-3609,-122.677066,38.340274,Public,Graduate degree or certificate offering,No,Suburb: Large,Master's Colleges & Universities: Larger Programs,Postbaccalaureate: Comprehensive programs,Very high undergraduate,"Four-year, medium, primarily residential",897,265,632,28,9,19,897,545,351,1,207,58,149,10,4,6,0,0,0,0,0,0,CA04
123633,South Baylo University, ,1126 N Brookhurst St,Anaheim,CA,92801-1701,-117.958416,33.848291,Private not-for-profit,Graduate degree or certificate offering,No,City: Large,Special Focus Four-Year: Other Health Professions Schools,Postbaccalaureate: Single program-Other,Exclusively graduate,Exclusively graduate/professional,348,120,228,87,29,58,348,348,0,0,59,18,41,17,7,10,0,0,0,0,0,0,CA46
123651,Vanguard University of Southern California,Vanguard University,55 Fair Dr,Costa Mesa,CA,92626,-117.900911,33.662686,Private not-for-profit,Graduate degree or certificate offering,No,City: Midsize,Master's Colleges & Universities: Medium Programs,"Postbaccalaureate: Other-dominant, with Arts & Sciences",Very high undergraduate,"Four-year, small, highly residential",427,129,298,4,1,3,427,12,301,114,101,26,75,0,0,0,0,0,0,0,0,0,CA47
123916,Starr King School for the Ministry, ,5000 MacArthur Blvd,Oakland,CA,94613-1209,-122.182294,37.781425,Private not-for-profit,Graduate degree or certificate offering,No,City: Large,Special Focus Four-Year: Faith-Related Institutions,"Postbaccalaureate: Other-dominant, with Arts & Sciences",Exclusively graduate,Exclusively graduate/professional,127,37,90,0,0,0,127,127,0,0,24,8,16,0,0,0,0,0,0,0,0,0,CA12
123943,Marshall B Ketchum University,formerly Southern California College of Optometry,2575 Yorba Linda Blvd,Fullerton,CA,92831-1699,-117.886229,33.889348,Private not-for-profit,Graduate degree or certificate offering,No,Suburb: Large,Special Focus Four-Year: Other Health Professions Schools,"Postbaccalaureate: Other-dominant, with Arts & Sciences",Exclusively graduate,Exclusively graduate/professional,759,254,505,28,9,19,759,13,746,0,40,17,23,0,0,0,0,0,0,0,0,0,CA45
123952,Southern California Institute of Architecture,SCI-Arc,960 E. 3rd Street,Los Angeles,CA,90013-1822,-118.232799,34.044215,Private not-for-profit,Graduate degree or certificate offering,No,City: Large,Special Focus Four-Year: Other Special Focus Institutions,"Postbaccalaureate: Other-dominant, with Arts & Sciences",Majority undergraduate,"Four-year, very small, primarily nonresidential",354,192,162,221,117,104,354,0,0,354,106,66,40,68,40,28,0,0,0,0,0,0,CA34
123961,University of Southern California,USC,University Park,Los Angeles,CA,90089,-118.284169,34.021281,Private not-for-profit,Graduate degree or certificate offering,No,City: Large,Doctoral Universities: Very High Research Activity,"Research Doctoral: Comprehensive programs, with medical/veterinary school",Majority graduate,"Four-year, large, primarily residential",30328,13254,17074,8910,4894,4016,30328,21409,6878,2041,9128,4034,5094,3385,1896,1489,768,386,382,234,143,91,CA37
123970,Southwestern Law School, ,3050 Wilshire Boulevard,Los Angeles,CA,90010-1106,-118.288375,34.061558,Private not-for-profit,Graduate degree or certificate offering,No,City: Large,Special Focus Four-Year: Law Schools,Postbaccalaureate: Single program-Other,Exclusively graduate,Exclusively graduate/professional,905,366,539,28,9,19,905,0,0,905,4,3,1,2,1,1,0,0,0,0,0,0,CA34
124283,Claremont School of Theology, ,1325 N College Ave,Claremont,CA,91711-3199,-117.715256,34.107602,Private not-for-profit,Graduate degree or certificate offering,No,Suburb: Large,Special Focus Four-Year: Faith-Related Institutions,Research Doctoral: Single program-Other,Exclusively graduate,Exclusively graduate/professional,333,193,140,57,38,19,333,333,0,0,60,30,30,5,2,3,31,21,10,11,11,0,CA28
124487,Epic Bible College & Graduate School,Trinity Life Bible College,4330 Auburn Boulevard,Sacramento,CA,95841,-121.362642,38.645152,Private not-for-profit,Graduate degree or certificate offering,No,Suburb: Large,nan,nan,nan,nan,60,40,20,5,5,0,60,14,41,5,9,6,3,2,2,0,0,0,0,0,0,0,CA06
125037,The Santa Barbara and Ventura Colleges of Law at Ventura, ,4475 Market St,Ventura,CA,93003,-119.232988,34.25747,Private not-for-profit,Graduate degree or certificate offering,No,City: Midsize,Special Focus Four-Year: Law Schools,Postbaccalaureate: Single program-Other,Exclusively graduate,Exclusively graduate/professional,297,100,197,1,1,0,297,76,148,73,14,3,11,0,0,0,0,0,0,0,0,0,CA24
125231,Walden University, ,"100 Washington Avenue South, Suite 900",Minneapolis,MN,55401,-93.265738,44.98125,Private for-profit,Graduate degree or certificate offering,No,City: Large,Doctoral/Professional Universities,Research Doctoral: Professional-dominant,Majority graduate,"Four-year, large, primarily nonresidential",64337,12191,52146,1259,288,971,64337,64337,0,0,8948,1532,7416,177,30,147,1641,510,1131,58,19,39,MN05
125718,Westminster Theological Seminary in California,Westminster Seminary California,1725 Bear Valley Parkway,Escondido,CA,92027,-117.046371,33.121447,Private not-for-profit,Graduate degree or certificate offering,No,Suburb: Large,Special Focus Four-Year: Faith-Related Institutions,Postbaccalaureate: Single program-Other,Exclusively graduate,Exclusively graduate/professional,145,125,20,29,26,3,145,0,0,145,36,33,3,6,6,0,0,0,0,0,0,0,CA50
125763,Whittier College, ,13406 E Philadelphia Street,Whittier,CA,90601,-118.032299,33.978773,Private not-for-profit,Graduate degree or certificate offering,No,Suburb: Large,Baccalaureate Colleges: Arts & Sciences Focus,"Postbaccalaureate: Education-dominant, with other professional programs",Very high undergraduate,"Four-year, small, highly residential",102,30,72,0,0,0,102,0,102,0,24,7,17,0,0,0,0,0,0,0,0,0,CA38
125897,Woodbury University, ,7500 Glenoaks Blvd,Burbank,CA,91504-1052,-118.341147,34.208011,Private not-for-profit,Graduate degree or certificate offering,No,City: Large,Master's Colleges & Universities: Small Programs,"Postbaccalaureate: Business-dominant, with Arts & Sciences",Very high undergraduate,"Four-year, small, primarily nonresidential",129,56,73,22,9,13,129,121,8,0,50,24,26,5,3,2,0,0,0,0,0,0,CA30
126012,The Wright Institute, ,2728 Durant Ave,Berkeley,CA,94704-1796,-122.253168,37.868221,Private not-for-profit,Graduate degree or certificate offering,No,City: Midsize,Special Focus Four-Year: Other Health Professions Schools,Postbaccalaureate: Single program-Other,Exclusively graduate,Exclusively graduate/professional,565,118,447,22,3,19,565,0,0,565,115,18,97,5,0,5,0,0,0,0,0,0,CA12
126049,Thomas Jefferson School of Law, ,701 B Street - Suite 110,San Diego,CA,92101,-117.157862,32.717595,Private not-for-profit,Graduate degree or certificate offering,No,City: Large,Special Focus Four-Year: Law Schools,Postbaccalaureate: Single program-Other,Exclusively graduate,Exclusively graduate/professional,285,120,165,3,1,2,285,25,0,260,9,3,6,1,0,1,0,0,0,0,0,0,CA50
126182,Adams State University, ,208 Edgemont Blvd,Alamosa,CO,81101,-105.879642,37.473636,Public,Graduate degree or certificate offering,No,Town: Remote,Master's Colleges & Universities: Larger Programs,Research Doctoral: Single program-Other,Majority undergraduate,"Four-year, small, primarily residential",1635,486,1149,8,4,4,1635,620,1004,11,391,113,278,2,0,2,7,2,5,0,0,0,CO03
126562,University of Colorado Denver/Anschutz Medical Campus,University of Colorado Denver  University of Colorado Anschutz Medical Campus    UCD,"1380 Lawrence Street, Lawrence Street Center, Suite 1400",Denver,CO,80217-3364,-104.837722,39.745149,Public,Graduate degree or certificate offering,No,City: Large,Doctoral Universities: Very High Research Activity,Research Doctoral: STEM-dominant,Majority undergraduate,"Four-year, large, primarily nonresidential",11762,4187,7575,739,333,406,11762,4445,5437,1880,2029,709,1320,179,88,91,165,57,108,11,4,7,CO06
126580,University of Colorado Colorado Springs,UCCS,1420 Austin Bluffs Parkway,Colorado Springs,CO,80918,-104.800296,38.892735,Public,Graduate degree or certificate offering,No,City: Large,Doctoral Universities: High Research Activity,Research Doctoral: STEM-dominant,High undergraduate,"Four-year, medium, primarily nonresidential",2645,1068,1577,114,80,34,2645,1000,768,877,569,241,328,22,14,8,30,22,8,9,7,2,CO05
126614,University of Colorado Boulder,U of Colorado|Univ of Colorado|University of Colorado|U of CO|Univ of CO|University of CO|Boulder|CU|CU-Boulder|UCB|CUB|Colorado|Colorado University|U of Colo|Univ of Colo|University of Colo|Colo|Buffs|Buffalos|Buffaloes|CU at Boulder|Golden Buffs|University of Colorado at Boulder,Regent Drive at Broadway,Boulder,CO,80309-0017,-105.270823,40.008781,Public,Graduate degree or certificate offering,No,City: Midsize,Doctoral Universities: Very High Research Activity,"Research Doctoral: Comprehensive programs, no medical/veterinary school",High undergraduate,"Four-year, large, primarily residential",8417,4745,3672,1364,948,416,8417,430,1000,6987,1745,1021,724,304,205,99,395,252,143,88,59,29,CO02
126669,Colorado Christian University,CCU,8787 West Alameda Avenue,Lakewood,CO,80226,-105.09456,39.71388,Private not-for-profit,Graduate degree or certificate offering,No,City: Midsize,Master's Colleges & Universities: Larger Programs,"Postbaccalaureate: Other-dominant, with other professional programs",High undergraduate,"Four-year, medium, primarily nonresidential",1698,448,1250,1,0,1,1698,1502,169,27,330,93,237,0,0,0,0,0,0,0,0,0,CO07
126678,Colorado College, ,14. E Cache La Poudre St.,Colorado Springs,CO,80903,-104.822697,38.84886,Private not-for-profit,Graduate degree or certificate offering,No,City: Large,Baccalaureate Colleges: Arts & Sciences Focus,Postbaccalaureate: Single program-Education,Very high undergraduate,"Four-year, small, highly residential",31,8,23,0,0,0,31,17,13,1,11,2,9,0,0,0,0,0,0,0,0,0,CO05
126775,Colorado School of Mines,Mines,1500 Illinois St,Golden,CO,80401,-105.223364,39.751443,Public,Graduate degree or certificate offering,No,Suburb: Large,Doctoral Universities: Very High Research Activity,Research Doctoral: STEM-dominant,High undergraduate,"Four-year, medium, primarily residential",1802,1275,527,423,312,111,1802,130,392,1280,456,325,131,82,68,14,88,63,25,30,23,7,CO07
126818,Colorado State University-Fort Collins, ,102 Administration Building,Fort Collins,CO,80523-0100,-105.080732,40.574805,Public,Graduate degree or certificate offering,No,City: Midsize,Doctoral Universities: Very High Research Activity,"Research Doctoral: Comprehensive programs, with medical/veterinary school",High undergraduate,"Four-year, large, primarily residential",9168,3996,5172,935,579,356,9168,3901,2922,2345,1649,736,913,180,116,64,221,115,106,53,32,21,CO02
126827,Colorado Technical University-Colorado Springs,Colorado Tech CTU,4435 N Chestnut Street,Colorado Springs,CO,80907-3812,-104.833928,38.894265,Private for-profit,Graduate degree or certificate offering,No,City: Large,Doctoral/Professional Universities,"Postbaccalaureate: Business-dominant, with Arts & Sciences",High undergraduate,"Four-year, large, primarily nonresidential",5448,2494,2954,1,1,0,5448,5435,13,0,1623,553,1070,0,0,0,0,0,0,0,0,0,CO05
126979,Denver Seminary, ,6399 S. Santa Fe Drive,Littleton,CO,80120,-105.022363,39.600595,Private not-for-profit,Graduate degree or certificate offering,No,Suburb: Large,Master's Colleges & Universities: Medium Programs,"Postbaccalaureate: Other-dominant, with Arts & Sciences",Exclusively graduate,Exclusively graduate/professional,1172,636,536,22,16,6,1172,372,526,274,155,65,90,0,0,0,0,0,0,0,0,0,CO06
127060,University of Denver,DU,2199 S. University Blvd,Denver,CO,80208,-104.963259,39.678005,Private not-for-profit,Graduate degree or certificate offering,No,City: Large,Doctoral Universities: Very High Research Activity,"Research Doctoral: Comprehensive programs, no medical/veterinary school",Majority undergraduate,"Four-year, large, primarily residential",10408,3645,6763,407,198,209,10408,6121,2806,1481,2389,801,1588,126,64,62,120,50,70,22,15,7,CO01
127185,Fort Lewis College,FLC,1000 Rim Drive,Durango,CO,81301-3999,-107.867422,37.275939,Public,Graduate degree or certificate offering,No,Town: Distant,Baccalaureate Colleges: Diverse Fields,Postbaccalaureate: Single program-Education,Very high undergraduate,"Four-year, medium, primarily residential",129,29,100,0,0,0,129,37,52,40,15,3,12,0,0,0,0,0,0,0,0,0,CO03
127273,Iliff School of Theology, ,2323 E. Iliff Ave.,Denver,CO,80210-4798,-104.960657,39.675927,Private not-for-profit,Graduate degree or certificate offering,No,City: Large,Special Focus Four-Year: Faith-Related Institutions,Research Doctoral: Single program-Other,Exclusively graduate,Exclusively graduate/professional,244,98,146,7,4,3,244,244,0,0,34,15,19,0,0,0,8,6,2,0,0,0,CO01
127556,Colorado Mesa University,Colorado Mesa,1100 North Avenue,Grand Junction,CO,81501-3122,-108.553275,39.080643,Public,Graduate degree or certificate offering,No,City: Small,Baccalaureate Colleges: Diverse Fields,"Postbaccalaureate: Education-dominant, with Arts & Sciences",Very high undergraduate,"Four-year, medium, primarily residential",228,81,147,2,1,1,228,81,69,78,57,25,32,0,0,0,0,0,0,0,0,0,CO03
127565,Metropolitan State University of Denver, ,Speer Blvd and Colfax Ave,Denver,CO,80217-3362,-105.00504,39.744202,Public,Graduate degree or certificate offering,No,City: Large,Master's Colleges & Universities: Larger Programs,"Postbaccalaureate: Other-dominant, with other professional programs",Very high undergraduate,"Four-year, large, primarily nonresidential",1270,292,978,13,4,9,1270,1085,66,119,372,75,297,2,2,0,0,0,0,0,0,0,CO01
127653,Naropa University, ,2130 Arapahoe Ave,Boulder,CO,80302-6697,-105.266987,40.014235,Private not-for-profit,Graduate degree or certificate offering,No,City: Midsize,Master's Colleges & Universities: Medium Programs,"Postbaccalaureate: Other-dominant, with Arts & Sciences",Majority graduate,"Four-year, very small, primarily residential",618,154,464,14,3,11,618,180,429,9,125,26,99,1,0,1,0,0,0,0,0,0,CO02
127741,University of Northern Colorado, ,Carter Hall - Rm 4000,Greeley,CO,80639,-104.692777,40.410855,Public,Graduate degree or certificate offering,No,City: Midsize,Doctoral/Professional Universities,"Research Doctoral: Comprehensive programs, no medical/veterinary school",High undergraduate,"Four-year, medium, primarily residential",4126,968,3158,104,46,58,4126,2145,1510,471,892,234,658,16,8,8,84,24,60,8,4,4,CO08
127909,Red Rocks Community College, ,13300 W Sixth Ave,Lakewood,CO,80228-1255,-105.150094,39.720277,Public,Graduate degree or certificate offering,No,City: Midsize,Baccalaureate/Associate's Colleges: Associate's Dominant,Postbaccalaureate: Single program-Other,Very high undergraduate,"Four-year, small, primarily nonresidential",98,31,67,0,0,0,98,0,0,98,31,11,20,0,0,0,0,0,0,0,0,0,CO07
127918,Regis University,Regis/Regis College/RU/Jesuit/Jesuit Denver Colorado/Regis Nursing/College of Computer & Information Science/College of Business & Economics/College of Contemporary Liberal Studies/RHCHP/Rangers/Regis U/Regis in Colorado/Rueckert-Hartman College for Health Professions/College of Computer & Information Sciences/College of Business & Economics/Anderson College of Business,3333 Regis Blvd,Denver,CO,80221-1099,-105.030756,39.788175,Private not-for-profit,Graduate degree or certificate offering,No,City: Large,Doctoral/Professional Universities,Postbaccalaureate: Comprehensive programs,Majority graduate,"Four-year, medium, primarily residential",4019,1280,2739,107,51,56,4019,1097,1869,1053,974,300,674,30,15,15,0,0,0,0,0,0,CO01
127945,Rocky Mountain College of Art and Design,RMCAD,1600 Pierce St,Lakewood,CO,80214,-105.069911,39.74332,Private for-profit,Graduate degree or certificate offering,No,City: Midsize,Baccalaureate Colleges: Diverse Fields,Not classified (Exclusively Undergraduate),Very high undergraduate,"Four-year, small, primarily nonresidential",16,5,11,0,0,0,16,16,0,0,0,0,0,0,0,0,0,0,0,0,0,0,CO07
127954,Montessori Education Center of the Rockies,Rocky Mountain Montessori Teacher Training Center,3975 Martin Luther King Blvd.,Denver,CO,80205,-104.943415,39.762942,Private not-for-profit,Graduate degree or certificate offering,No,City: Large,nan,nan,nan,nan,51,5,46,0,0,0,51,51,0,0,0,0,0,0,0,0,0,0,0,0,0,0,CO01
128106,Colorado State University Pueblo,CSU Pueblo,2200 Bonforte Blvd,Pueblo,CO,81001-4901,-104.579033,38.30859,Public,Graduate degree or certificate offering,No,City: Midsize,Master's Colleges & Universities: Medium Programs,"Postbaccalaureate: Other-dominant, with Arts & Sciences",High undergraduate,"Four-year, medium, primarily residential",7036,1442,5594,31,15,16,7036,6649,272,115,151,52,99,8,6,2,0,0,0,0,0,0,CO03
128391,Western Colorado University,Western,1 Western Way,Gunnison,CO,81231,-106.919132,38.549936,Public,Graduate degree or certificate offering,No,Town: Remote,Master's Colleges & Universities: Medium Programs,"Postbaccalaureate: Education-dominant, with Arts & Sciences",High undergraduate,"Four-year, small, highly residential",691,211,480,2,0,2,691,258,147,286,133,55,78,2,0,2,0,0,0,0,0,0,CO03
128498,Albertus Magnus College, ,700 Prospect St,New Haven,CT,06511-1189,-72.923848,41.332519,Private not-for-profit,Graduate degree or certificate offering,No,City: Midsize,Master's Colleges & Universities: Medium Programs,"Postbaccalaureate: Business-dominant, with Arts & Sciences",High undergraduate,"Four-year, small, primarily residential",379,105,274,3,0,3,379,141,99,139,112,34,78,3,0,3,0,0,0,0,0,0,CT03
128744,University of Bridgeport, ,126 Park Avenue,Bridgeport,CT,06604-5620,-73.190166,41.164741,Private not-for-profit,Graduate degree or certificate offering,No,City: Midsize,Doctoral/Professional Universities,Research Doctoral: STEM-dominant,Majority undergraduate,"Four-year, medium, primarily residential",2193,727,1466,228,140,88,2193,738,399,1056,459,155,304,92,60,32,20,11,9,3,2,1,CT04
128771,Central Connecticut State University,CCSU,1615 Stanley St,New Britain,CT,06050,-72.765991,41.692502,Public,Graduate degree or certificate offering,No,Suburb: Large,Master's Colleges & Universities: Larger Programs,Research Doctoral: Single program-Education,High undergraduate,"Four-year, medium, primarily residential",2641,954,1687,40,12,28,2641,2189,322,130,511,189,322,15,1,14,15,3,12,0,0,0,CT05
128780,Charter Oak State College, ,55 Paul Manafort Drive,New Britain,CT,06053,-72.767972,41.688246,Public,Graduate degree or certificate offering,No,Suburb: Large,Baccalaureate Colleges: Arts & Sciences Focus,Postbaccalaureate: Single program-Business,Very high undergraduate,"Four-year, very small, primarily nonresidential",116,24,92,0,0,0,116,116,0,0,29,7,22,0,0,0,0,0,0,0,0,0,CT05
129020,University of Connecticut, ,352 Mansfield Road,Storrs,CT,06269,-72.249948,41.809098,Public,Graduate degree or certificate offering,No,Suburb: Large,Doctoral Universities: Very High Research Activity,"Research Doctoral: Comprehensive programs, with medical/veterinary school",Majority undergraduate,"Four-year, large, highly residential",9295,4211,5084,1906,981,925,9295,3776,3759,1760,1968,874,1094,543,245,298,308,160,148,144,85,59,CT02
129154,Goodwin University,Goodwin,One Riverside Drive,East Hartford,CT,06118,-72.64032,41.742977,Private not-for-profit,Graduate degree or certificate offering,No,City: Small,Baccalaureate/Associate's Colleges: Mixed Baccalaureate/Associate's,"Postbaccalaureate: Business-dominant, with other professional programs",Very high undergraduate,"Four-year, small, primarily nonresidential",139,32,107,0,0,0,139,73,15,51,54,11,43,0,0,0,0,0,0,0,0,0,CT01
129215,Eastern Connecticut State University,Eastern|ECSU,83 Windham St,Willimantic,CT,06226,-72.218753,41.721673,Public,Graduate degree or certificate offering,No,Town: Fringe,Master's Colleges & Universities: Small Programs,"Postbaccalaureate: Education-dominant, with other professional programs",Very high undergraduate,"Four-year, medium, highly residential",241,73,168,4,0,4,241,45,157,39,101,27,74,2,0,2,0,0,0,0,0,0,CT02
129242,Fairfield University, ,1073 N Benson Rd,Fairfield,CT,06824-5195,-73.255903,41.157673,Private not-for-profit,Graduate degree or certificate offering,No,Suburb: Large,Doctoral/Professional Universities,Postbaccalaureate: Comprehensive programs,High undergraduate,"Four-year, medium, highly residential",1325,410,915,93,44,49,1325,476,380,469,391,143,248,23,13,10,0,0,0,0,0,0,CT04
129428,Rensselaer at Hartford, ,275 Windsor St,Hartford,CT,06120,-72.673916,41.773462,Private not-for-profit,Graduate degree or certificate offering,No,City: Midsize,Special Focus Four-Year: Engineering and Other Technology-Related Schools,Postbaccalaureate: Arts & sciences-dominant,Exclusively graduate,Exclusively graduate/professional,148,116,32,2,1,1,148,0,148,0,24,19,5,0,0,0,0,0,0,0,0,0,CT01
129491,Hartford Seminary, ,77 Sherman Street,Hartford,CT,06105-2260,-72.707766,41.769861,Private not-for-profit,Graduate degree or certificate offering,No,City: Midsize,Master's Colleges & Universities: Small Programs,Postbaccalaureate: Arts & sciences-dominant,Exclusively graduate,Exclusively graduate/professional,159,79,80,15,10,5,159,159,0,0,21,10,11,4,3,1,0,0,0,0,0,0,CT01
129525,University of Hartford,"UHart, UHA, Hartford",200 Bloomfield Ave,West Hartford,CT,06117-1599,-72.715213,41.798591,Private not-for-profit,Graduate degree or certificate offering,No,City: Midsize,Doctoral/Professional Universities,Research Doctoral: Professional-dominant,High undergraduate,"Four-year, medium, highly residential",2527,934,1593,207,80,127,2527,1734,170,623,742,299,443,80,35,45,26,17,9,4,3,1,CT01
129534,Holy Apostles College and Seminary,HACS,33 Prospect Hill Road,Cromwell,CT,06416-2005,-72.647853,41.60682,Private not-for-profit,Graduate degree or certificate offering,No,Suburb: Large,Master's Colleges & Universities: Medium Programs,"Postbaccalaureate: Other-dominant, with Arts & Sciences",Majority graduate,"Four-year, very small, primarily nonresidential",639,460,179,60,45,15,639,575,61,3,123,84,39,30,20,10,0,0,0,0,0,0,CT01
129941,University of New Haven,UNH,300 Boston Post Road,West Haven,CT,06516-1916,-72.961472,41.291314,Private not-for-profit,Graduate degree or certificate offering,No,Suburb: Large,Master's Colleges & Universities: Larger Programs,Research Doctoral: Single program-Other,High undergraduate,"Four-year, medium, highly residential",2534,1277,1257,840,521,319,2534,702,782,1050,981,499,482,365,237,128,2,2,0,0,0,0,CT03
130183,Post University, ,800 Country Club Rd,Waterbury,CT,06723,-73.081497,41.535549,Private for-profit,Graduate degree or certificate offering,No,Suburb: Midsize,Master's Colleges & Universities: Larger Programs,"Postbaccalaureate: Business-dominant, with other professional programs",High undergraduate,"Four-year, medium, primarily nonresidential",2023,731,1292,4,3,1,2023,1916,105,2,371,172,199,3,3,0,0,0,0,0,0,0,CT05
130226,Quinnipiac University, ,Mt Carmel Ave,Hamden,CT,06518,-72.894117,41.418915,Private not-for-profit,Graduate degree or certificate offering,No,Suburb: Large,Doctoral/Professional Universities,"Postbaccalaureate: Other-dominant, with Arts & Sciences",High undergraduate,"Four-year, medium, highly residential",3833,1219,2614,46,13,33,3833,915,2918,0,831,287,544,5,1,4,0,0,0,0,0,0,CT03
130253,Sacred Heart University,SHU,5151 Park Ave,Fairfield,CT,06825-1000,-73.243332,41.220893,Private not-for-profit,Graduate degree or certificate offering,No,Suburb: Large,Doctoral/Professional Universities,"Postbaccalaureate: Other-dominant, with Arts & Sciences",High undergraduate,"Four-year, medium, highly residential",3671,908,2763,191,114,77,3671,1542,1352,777,1025,323,702,96,57,39,0,0,0,0,0,0,CT04
